{
  "version": 0.6,
  "generator": "Overpass API 0.7.54.12 054bb0bb",
  "osm3s": {
    "timestamp_osm_base": "2017-12-25T12:36:02Z",
    "timestamp_areas_base": "2017-12-25T12:28:02Z",
    "copyright": "The data included in this document is from www.openstreetmap.org. The data is made available under ODbL."
  },
  "elements": [

{
  "type": "node",
  "id": 105840448,
  "lat": 51.6428160,
  "lon": 12.7196884,
  "tags": {
    "name": "Bunker Militär-Museum Kossa",
    "tourism": "museum"
  }
},
{
  "type": "node",
  "id": 224142191,
  "lat": 51.0710790,
  "lon": 13.0247945,
  "tags": {
    "name": "Waldheimer Stadtmuseum",
    "tourism": "museum"
  }
},
{
  "type": "node",
  "id": 224521195,
  "lat": 50.7364994,
  "lon": 13.5571646,
  "tags": {
    "name": "Sächsisches Brauereimuseum Rechenberg",
    "tourism": "museum"
  }
},
{
  "type": "node",
  "id": 225975043,
  "lat": 50.8995156,
  "lon": 14.6609401,
  "tags": {
    "addr:city": "Großschönau",
    "addr:housenumber": "3",
    "addr:postcode": "02779",
    "addr:street": "Schenaustraße",
    "name": "Deutsches Damast- und Frottiermuseum",
    "phone": "+49 35841 35 469",
    "tourism": "museum",
    "website": "www.ddfm.de"
  }
},
{
  "type": "node",
  "id": 225975048,
  "lat": 50.8994483,
  "lon": 14.6655573,
  "tags": {
    "name": "Technik- und Motorradmuseum",
    "tourism": "museum"
  }
},
{
  "type": "node",
  "id": 251794423,
  "lat": 50.6916012,
  "lon": 13.0905575,
  "tags": {
    "addr:city": "Großolbersdorf",
    "addr:country": "DE",
    "addr:housenumber": "16",
    "addr:postcode": "09432",
    "addr:street": "Schulstraße",
    "name": "Dorfmuseum \"Sättlerhaus\"",
    "tourism": "museum"
  }
},
{
  "type": "node",
  "id": 252440258,
  "lat": 51.3291145,
  "lon": 12.3436588,
  "tags": {
    "addr:city": "Leipzig",
    "addr:country": "DE",
    "addr:housenumber": "34",
    "addr:postcode": "04229",
    "addr:street": "Nonnenstraße",
    "contact:phone": "+49 341 231620",
    "contact:website": "http://www.druckkunst-museum.de/",
    "name": "Museum für Druckkunst",
    "opening_hours": "Mo-Fr 10:00-17:00; Sa off; Su 11:00-17:00",
    "tourism": "museum",
    "wheelchair": "yes",
    "wikidata": "Q1954612",
    "wikipedia": "de:Museum für Druckkunst"
  }
},
{
  "type": "node",
  "id": 257021574,
  "lat": 51.3397893,
  "lon": 12.3757292,
  "tags": {
    "addr:city": "Leipzig",
    "addr:country": "DE",
    "addr:housenumber": "6",
    "addr:postcode": "04109",
    "addr:street": "Grimmaische Straße",
    "contact:email": "zfl@hdg.de",
    "contact:phone": "+49 341 22200",
    "contact:website": "http://www.hdg.de/leipzig/",
    "email": "zfl@hdg.de",
    "fee": "no",
    "name": "Zeitgeschichtliches Forum",
    "name:zh": "萊比錫現代史博物館",
    "opening_hours": "Mo off, Tu-Fr 09:00-18:00, Sa-Su 10:00-18:00",
    "opening_hours:url": "http://www.hdg.de/leipzig/",
    "operator": "Stiftung Haus der Geschichte der Bundesrepublik Deutschland",
    "phone": "+49 341 22200",
    "start_date": "1999",
    "tourism": "museum",
    "website": "http://www.hdg.de/leipzig/",
    "wheelchair": "yes",
    "wikidata": "Q186043",
    "wikipedia": "de:Zeitgeschichtliches Forum Leipzig"
  }
},
{
  "type": "node",
  "id": 257414238,
  "lat": 50.7007520,
  "lon": 13.1747112,
  "tags": {
    "disused": "yes",
    "historic": "yes",
    "image": "http://commons.wikimedia.org/wiki/File:Kalkwerk_Lengefeld_Miebner_2010.jpg",
    "man_made": "mineshaft",
    "name": "Kalkwerk Lengefeld",
    "tourism": "museum",
    "url": "http://www.kalkwerk-lengefeld.de/",
    "wheelchair": "no",
    "wikidata": "Q1722422",
    "wikimedia_commons": "Category:Kalkwerk Lengefeld",
    "wikipedia": "de:Kalkwerk Lengefeld"
  }
},
{
  "type": "node",
  "id": 257679437,
  "lat": 51.2986761,
  "lon": 13.3159016,
  "tags": {
    "name": "Städtisches Zentrum für Geschichte und Kunst",
    "tourism": "museum",
    "wheelchair": "yes"
  }
},
{
  "type": "node",
  "id": 259694631,
  "lat": 51.0190636,
  "lon": 14.7406504,
  "tags": {
    "name": "Völkerkundemuseum",
    "phone": "+49 35873 2403",
    "tourism": "museum",
    "website": "http://www.voelkerkunde-herrnhut.de/"
  }
},
{
  "type": "node",
  "id": 260988220,
  "lat": 50.8718256,
  "lon": 14.7769184,
  "tags": {
    "addr:city": "Olbersdorf",
    "addr:country": "DE",
    "addr:housenumber": "1",
    "addr:postcode": "02785",
    "addr:street": "Auf dem Kaltenstein",
    "name": "Uhrenhof",
    "tourism": "museum"
  }
},
{
  "type": "node",
  "id": 261116909,
  "lat": 50.4936492,
  "lon": 12.1341938,
  "tags": {
    "name": "Vogtlandmuseum",
    "tourism": "museum",
    "wheelchair": "limited"
  }
},
{
  "type": "node",
  "id": 264129206,
  "lat": 50.3068534,
  "lon": 12.3787781,
  "tags": {
    "name": "Freilichtmuseum Eubabrunn",
    "opening_hours": "Tu-Su 10:00-17:00",
    "tourism": "museum",
    "website": "http://www.freilichtmuseum-eubabrunn.de"
  }
},
{
  "type": "node",
  "id": 264246245,
  "lat": 50.9723822,
  "lon": 13.9931348,
  "tags": {
    "name": "Feldbahnmuseum",
    "tourism": "museum",
    "website": "http://www.feldbahnmuseum-herrenleite.de/"
  }
},
{
  "type": "node",
  "id": 264699862,
  "lat": 50.6183248,
  "lon": 12.4366358,
  "tags": {
    "name": "Lochmühle",
    "tourism": "museum"
  }
},
{
  "type": "node",
  "id": 267778819,
  "lat": 50.4189908,
  "lon": 11.9881447,
  "tags": {
    "name": "Hermann-Vogel-Haus",
    "tourism": "museum"
  }
},
{
  "type": "node",
  "id": 267826939,
  "lat": 50.7985213,
  "lon": 12.7105918,
  "tags": {
    "addr:city": "Hohenstein-Ernstthal",
    "addr:housenumber": "6",
    "addr:postcode": "09337",
    "addr:street": "Antonstraße",
    "name": "THM Textil und Rennsportmuseeum Hohenstein Ernstthal",
    "tourism": "museum"
  }
},
{
  "type": "node",
  "id": 269374449,
  "lat": 50.6919143,
  "lon": 12.8175356,
  "tags": {
    "addr:city": "Zwönitz",
    "addr:housenumber": "7",
    "addr:postcode": "08297",
    "addr:street": "Windmühlenweg",
    "name": "Weihnachtsberg",
    "opening_hours": "Nov-Jan: Mo-Fr 16:00-17:00; Nov-Jan: Sa,Su 10:00-11:30,13:00-17:00; Feb-Oct: \"Nach Vereinbarung\"",
    "tourism": "museum",
    "url": "http://www.bruenlos.de/Bilder/Weihnachtsberg/weihnachtsberg.html"
  }
},
{
  "type": "node",
  "id": 270181916,
  "lat": 50.8979665,
  "lon": 14.8085052,
  "tags": {
    "name": "Kulturhistorisches Museum Franziskanerkloster",
    "tourism": "museum",
    "wheelchair": "yes"
  }
},
{
  "type": "node",
  "id": 270181922,
  "lat": 50.8976087,
  "lon": 14.8072631,
  "tags": {
    "name": "Curt-Heinke-Museum für Geologie",
    "tourism": "museum",
    "wheelchair": "no"
  }
},
{
  "type": "node",
  "id": 271796355,
  "lat": 51.0001100,
  "lon": 13.9204007,
  "tags": {
    "name": "Richard-Wagner-Museum",
    "tourism": "museum",
    "website": "http://www.richardwagnermuseum.de",
    "wheelchair": "no"
  }
},
{
  "type": "node",
  "id": 277953985,
  "lat": 50.9300337,
  "lon": 14.6186119,
  "tags": {
    "name": "Puppenmuseum",
    "tourism": "museum",
    "wheelchair": "limited"
  }
},
{
  "type": "node",
  "id": 279104559,
  "lat": 51.1563346,
  "lon": 14.9917625,
  "tags": {
    "name": "Barockhaus",
    "name:en": "Museum of Cultural History and the Upper Lusatian Scientific Library",
    "name:pl": "Muzeum Historyczno-Kulturalne",
    "tourism": "museum"
  }
},
{
  "type": "node",
  "id": 279105270,
  "lat": 51.1534317,
  "lon": 14.9867889,
  "tags": {
    "alt_name": "Senckenberg Museum für Naturkunde Görlitz",
    "name": "Naturkundemuseum",
    "name:de": "Senckenberg Museum für Naturkunde Görlitz",
    "name:en": "Senckenberg Museum of Natural History Goerlitz",
    "opening_hours": "Tu-Fr 10:00-17:00; Sa-Su 10:00-18:00",
    "operator": "Senckenberg Gesellschaft für Naturforschung",
    "toilets:wheelchair": "yes",
    "tourism": "museum",
    "website": "http://www.senckenberg.de/root/index.php?page_id=5257",
    "wheelchair": "yes",
    "wikidata": "Q2269936",
    "wikipedia": "de:Senckenberg Museum für Naturkunde Görlitz"
  }
},
{
  "type": "node",
  "id": 279567833,
  "lat": 51.1559807,
  "lon": 14.9904903,
  "tags": {
    "addr:city": "Görlitz",
    "addr:housenumber": "4",
    "addr:postcode": "02826",
    "addr:street": "Untermarkt",
    "name": "Schlesisches Museum",
    "name:en": "Silesian Museum",
    "name:pl": "Muzeum Śląskie",
    "tourism": "museum",
    "website": "http://www.schlesisches-museum.de",
    "wheelchair": "no"
  }
},
{
  "type": "node",
  "id": 286035080,
  "lat": 51.3017346,
  "lon": 12.2216682,
  "tags": {
    "name": "Heimatmuseum",
    "operator": "Stadt Markranstädt",
    "tourism": "museum"
  }
},
{
  "type": "node",
  "id": 287150841,
  "lat": 51.0442287,
  "lon": 13.7460153,
  "tags": {
    "name": "Dresdner Kinder-Museum",
    "source_ref": "http://www.dhmd.de/neu/index.php?id=655",
    "tourism": "museum",
    "wheelchair": "yes"
  }
},
{
  "type": "node",
  "id": 287910496,
  "lat": 50.7338083,
  "lon": 12.9176429,
  "tags": {
    "name": "Bulldog-Museum",
    "opening_hours": "Su 13:00-17:00",
    "operator": "Bulldogfreunde Erzgebirge e. V.",
    "tourism": "museum",
    "wheelchair": "limited"
  }
},
{
  "type": "node",
  "id": 287996729,
  "lat": 50.7844212,
  "lon": 12.6225928,
  "tags": {
    "name": "Heimatmuseum Gerth-Turm",
    "opening_hours": "\"jeden 1. Samstag im Monat \"",
    "tourism": "museum",
    "wheelchair": "no"
  }
},
{
  "type": "node",
  "id": 288011291,
  "lat": 50.7599287,
  "lon": 12.7091028,
  "tags": {
    "addr:city": "Gersdorf",
    "addr:country": "DE",
    "addr:housenumber": "193",
    "addr:postcode": "09355",
    "addr:street": "Hauptstraße",
    "name": "Tetzner Museum",
    "opening_hours": "We 15:00-18:00; Su 13:30-18:00",
    "operator": "Gemeinde Gersdorf",
    "tourism": "museum"
  }
},
{
  "type": "node",
  "id": 288137438,
  "lat": 51.3125034,
  "lon": 12.3174874,
  "tags": {
    "name": "Eisenbahnmuseum Leipzig",
    "tourism": "museum",
    "website": "http://dampfbahnmuseum.de/"
  }
},
{
  "type": "node",
  "id": 289650425,
  "lat": 51.3290635,
  "lon": 12.3263853,
  "tags": {
    "name": "Oldtimermuseum",
    "tourism": "museum",
    "website": "http://www.michaelis-leipzig.de/index.php?id=da-capo",
    "wheelchair": "yes"
  }
},
{
  "type": "node",
  "id": 289987590,
  "lat": 51.0502003,
  "lon": 13.7430815,
  "tags": {
    "name": "Stadtmuseum Dresden",
    "opening_hours": "Tu-Su 10:00-18:00; Fr 10:00-19:00",
    "operator": "Landeshauptstadt Dresden",
    "phone": "+49 351 4887301",
    "tourism": "museum",
    "website": "http://www.stmd.de/",
    "wheelchair": "yes"
  }
},
{
  "type": "node",
  "id": 292421625,
  "lat": 50.3559528,
  "lon": 12.4678650,
  "tags": {
    "addr:city": "Klingenthal",
    "addr:country": "DE",
    "addr:housenumber": "3",
    "addr:postcode": "08248",
    "addr:street": "Schloßstraße",
    "tourism": "museum"
  }
},
{
  "type": "node",
  "id": 295467139,
  "lat": 50.8417216,
  "lon": 12.3953888,
  "tags": {
    "name": "Zisterziensernonnenkloster",
    "religion": "christian",
    "source": "www.kloster-frankenhausen.de/",
    "tourism": "museum"
  }
},
{
  "type": "node",
  "id": 295659565,
  "lat": 50.9349933,
  "lon": 14.6085227,
  "tags": {
    "name": "Karasek-Museum",
    "tourism": "museum",
    "website": "www.karaseks-revier.de"
  }
},
{
  "type": "node",
  "id": 296372122,
  "lat": 50.8495657,
  "lon": 12.4667756,
  "tags": {
    "name": "Heimatmuseum",
    "tourism": "museum"
  }
},
{
  "type": "node",
  "id": 297470198,
  "lat": 50.8313692,
  "lon": 12.9232767,
  "tags": {
    "addr:city": "Chemnitz",
    "addr:country": "DE",
    "addr:housenumber": "20",
    "addr:postcode": "09111",
    "addr:street": "Moritzstraße",
    "name": "Museum für Naturkunde Chemnitz",
    "phone": "+493714884551",
    "tourism": "museum",
    "website": "http://www.naturkunde-chemnitz.de",
    "wheelchair": "yes",
    "wikidata": "Q1253547",
    "wikipedia": "de:Museum für Naturkunde Chemnitz"
  }
},
{
  "type": "node",
  "id": 301204857,
  "lat": 50.9191265,
  "lon": 12.8035006,
  "tags": {
    "name": "Stadtmuseum",
    "tourism": "museum"
  }
},
{
  "type": "node",
  "id": 302686164,
  "lat": 51.1932813,
  "lon": 14.8488164,
  "tags": {
    "name": "Granitabbaumuseum",
    "tourism": "museum",
    "wheelchair": "no"
  }
},
{
  "type": "node",
  "id": 303430216,
  "lat": 50.9636114,
  "lon": 13.9391753,
  "tags": {
    "addr:city": "Pirna",
    "addr:country": "DE",
    "addr:housenumber": "2",
    "addr:postcode": "01796",
    "addr:street": "Klosterhof",
    "name": "Stadtmuseum Pirna",
    "tourism": "museum",
    "wheelchair": "limited"
  }
},
{
  "type": "node",
  "id": 306457148,
  "lat": 51.0674018,
  "lon": 14.9576915,
  "tags": {
    "man_made": "crane",
    "name": "Bagger 1452 - SRS 1200",
    "tourism": "museum",
    "wikidata": "Q799878",
    "wikipedia": "de:Bagger 1452"
  }
},
{
  "type": "node",
  "id": 310236395,
  "lat": 50.8661511,
  "lon": 13.0552476,
  "tags": {
    "fee": "no",
    "name": "Bauernmuseum",
    "operator": "Kurt Vogel",
    "tourism": "museum"
  }
},
{
  "type": "node",
  "id": 312594567,
  "lat": 50.6993989,
  "lon": 13.2287526,
  "tags": {
    "addr:city": "Pockau-Lengefeld",
    "addr:country": "DE",
    "addr:housenumber": "5b",
    "addr:postcode": "09509",
    "addr:street": "Mühlenweg",
    "addr:suburb": "Pockau",
    "contact:phone": "+49 37367 31319",
    "name": "Technisches Museum Ölmühle Pockau",
    "opening_hours": "May 15-Oct 15: We 15:00-16:00; Sa 09:00-11:00,14:00-16:00",
    "tourism": "museum",
    "website": "http://www.pockau.de/Oelmuehle.htm"
  }
},
{
  "type": "node",
  "id": 316710908,
  "lat": 51.0575880,
  "lon": 13.8131069,
  "tags": {
    "name": "Schillerhäuschen",
    "tourism": "museum"
  }
},
{
  "type": "node",
  "id": 316817058,
  "lat": 50.8223808,
  "lon": 12.8890920,
  "tags": {
    "museum": "railway",
    "name": "Straßenbahnmuseum",
    "tourism": "museum",
    "wheelchair": "limited"
  }
},
{
  "type": "node",
  "id": 321206144,
  "lat": 51.5590928,
  "lon": 13.0093343,
  "tags": {
    "name": "Lapidarium",
    "opening_hours": "Mo-Su 10:00-18:00",
    "tourism": "museum"
  }
},
{
  "type": "node",
  "id": 322482610,
  "lat": 50.8126236,
  "lon": 13.0992828,
  "tags": {
    "name": "Naturkundemuseum",
    "tourism": "museum",
    "wheelchair": "yes"
  }
},
{
  "type": "node",
  "id": 322482611,
  "lat": 50.8126935,
  "lon": 13.0995792,
  "tags": {
    "name": "Motorradmuseum",
    "tourism": "museum",
    "wheelchair": "yes"
  }
},
{
  "type": "node",
  "id": 323746703,
  "lat": 50.7346169,
  "lon": 12.7678202,
  "tags": {
    "name": "Museum Alte Ziegelei",
    "tourism": "museum"
  }
},
{
  "type": "node",
  "id": 324170694,
  "lat": 51.5589268,
  "lon": 13.0082813,
  "tags": {
    "name": "Kreismuseum",
    "tourism": "museum"
  }
},
{
  "type": "node",
  "id": 330057061,
  "lat": 51.0985582,
  "lon": 13.6811802,
  "tags": {
    "addr:city": "Radebeul",
    "addr:country": "DE",
    "addr:housenumber": "4",
    "addr:postcode": "01445",
    "addr:street": "Am Alten Güterboden",
    "museum": "railway",
    "name": "Schmalspurbahnmuseum",
    "tourism": "museum"
  }
},
{
  "type": "node",
  "id": 330099299,
  "lat": 51.0862633,
  "lon": 13.7291916,
  "tags": {
    "name": "Straßenbahnmuseum Dresden e.V.",
    "tourism": "museum",
    "website": "http://www.strassenbahnmuseum-dresden.de/",
    "wheelchair": "yes",
    "wikidata": "Q2354751",
    "wikipedia": "de:Straßenbahnmuseum Dresden"
  }
},
{
  "type": "node",
  "id": 330613218,
  "lat": 51.4487751,
  "lon": 12.6254016,
  "tags": {
    "tourism": "museum",
    "wheelchair": "yes"
  }
},
{
  "type": "node",
  "id": 331599457,
  "lat": 50.6631256,
  "lon": 13.1439237,
  "tags": {
    "name": "Pferdegöpel Rudolphschacht",
    "tourism": "museum"
  }
},
{
  "type": "node",
  "id": 331725290,
  "lat": 50.4941593,
  "lon": 12.1356103,
  "tags": {
    "addr:city": "Plauen",
    "addr:housenumber": "1",
    "addr:postcode": "08523",
    "addr:street": "Unterer Graben",
    "name": "Plauener Spitzenmuseum",
    "phone": "+49 3741 222355",
    "tourism": "museum",
    "website": "http://www.plauen.de/spitzenmuseum",
    "wheelchair": "limited"
  }
},
{
  "type": "node",
  "id": 336467599,
  "lat": 51.0548567,
  "lon": 14.6578769,
  "tags": {
    "name": "Alte Weberstube",
    "tourism": "museum"
  }
},
{
  "type": "node",
  "id": 338359196,
  "lat": 51.0181550,
  "lon": 12.6023650,
  "tags": {
    "addr:city": "Kohren-Sahlis",
    "addr:country": "DE",
    "addr:housenumber": "18",
    "addr:postcode": "04655",
    "addr:street": "Baumgartenstraße",
    "name": "Töpfermuseum",
    "opening_hours": "Tu-Su 13:00-17:00",
    "tourism": "museum",
    "wheelchair": "limited"
  }
},
{
  "type": "node",
  "id": 342004830,
  "lat": 51.2456715,
  "lon": 13.8759530,
  "tags": {
    "name": "Samendarre",
    "tourism": "museum"
  }
},
{
  "type": "node",
  "id": 343502300,
  "lat": 51.1826418,
  "lon": 14.0122489,
  "tags": {
    "name": "Stadtmuseum",
    "tourism": "museum"
  }
},
{
  "type": "node",
  "id": 345421273,
  "lat": 50.2697074,
  "lon": 12.3312683,
  "tags": {
    "name": "Vogtländisches Freilichtmuseum Landwüst",
    "opening_hours": "Apr-Nov Tu-Su,PH 10:00-17:00; Dez-Mar Sa,Su 10:00-16:00",
    "tourism": "museum",
    "website": "http://www.vogtlaendisches-freilichtmuseum.de/",
    "wheelchair": "limited"
  }
},
{
  "type": "node",
  "id": 350326599,
  "lat": 50.3179729,
  "lon": 12.3444923,
  "tags": {
    "name": "Musikwerkausstellung",
    "tourism": "museum"
  }
},
{
  "type": "node",
  "id": 350326606,
  "lat": 50.3104312,
  "lon": 12.3220333,
  "tags": {
    "addr:housenumber": "25",
    "addr:street": "Adorfer Straße",
    "name": "Framus-Werksmuseum",
    "tourism": "museum",
    "wheelchair": "no"
  }
},
{
  "type": "node",
  "id": 354887704,
  "lat": 51.1405305,
  "lon": 14.8067216,
  "tags": {
    "name": "Heimatmuseum",
    "tourism": "museum"
  }
},
{
  "type": "node",
  "id": 355706131,
  "lat": 51.1519819,
  "lon": 12.9873557,
  "tags": {
    "tourism": "museum"
  }
},
{
  "type": "node",
  "id": 355984518,
  "lat": 50.7329475,
  "lon": 12.4838652,
  "tags": {
    "addr:city": "Zwickau",
    "addr:country": "DE",
    "addr:housenumber": "7",
    "addr:postcode": "08058",
    "addr:street": "Audistraße",
    "name": "Automobilmuseum August Horch",
    "opening_hours": "Tu-Su 09:30-17:00",
    "tourism": "museum",
    "wheelchair": "yes"
  }
},
{
  "type": "node",
  "id": 358346523,
  "lat": 51.3421945,
  "lon": 12.3701826,
  "tags": {
    "addr:city": "Leipzig",
    "addr:country": "DE",
    "addr:housenumber": "20",
    "addr:postcode": "04109",
    "addr:street": "Goerdelerring",
    "name": "Schulmuseum",
    "opening_hours": "Mo-Fr 09:00-16:00",
    "tourism": "museum",
    "website": "http://www.schulmuseum-leipzig.de",
    "wheelchair": "no"
  }
},
{
  "type": "node",
  "id": 359551140,
  "lat": 51.3402833,
  "lon": 12.3753681,
  "tags": {
    "addr:city": "Leipzig",
    "addr:country": "DE",
    "addr:housenumber": "1",
    "addr:postcode": "04109",
    "addr:street": "Markt",
    "name": "Stadtgeschichtliches Museum",
    "opening_hours": "Tu-Su 10:00-18:00; PH 10:00-18:00",
    "tourism": "museum",
    "website": "http://www.stadtgeschichtliches-museum-leipzig.de/",
    "wheelchair": "yes"
  }
},
{
  "type": "node",
  "id": 368402470,
  "lat": 51.0541682,
  "lon": 12.5585210,
  "tags": {
    "name": "Schlossmuseum",
    "tourism": "museum"
  }
},
{
  "type": "node",
  "id": 368970156,
  "lat": 51.0526212,
  "lon": 13.7362897,
  "tags": {
    "level": "0",
    "name": "Historisches Grünes Gewölbe",
    "opening_hours": "Mo-Su 10:00-18:00; Tu off",
    "operator": "Staatliche Kunstsammlungen Dresden",
    "phone": "+49 351 49142000",
    "tourism": "museum",
    "website": "http://www.skd.museum/de/museen-institutionen/residenzschloss/gruenes-gewoelbe/index.html",
    "wheelchair": "yes",
    "wikidata": "Q707407",
    "wikipedia": "de:Grünes Gewölbe"
  }
},
{
  "type": "node",
  "id": 370072136,
  "lat": 50.8691234,
  "lon": 14.6492402,
  "tags": {
    "name": "Volkskunde- und Mühlenmuseum",
    "tourism": "museum"
  }
},
{
  "type": "node",
  "id": 374057222,
  "lat": 51.5163896,
  "lon": 14.7632903,
  "tags": {
    "addr:city": "Krauschwitz",
    "addr:country": "DE",
    "addr:housenumber": "68",
    "addr:postcode": "02957",
    "addr:street": "Skerbersdorfer Straße",
    "email": "info@museum-sagar.de",
    "fax": "(035771) 64744",
    "name": "Handwerk- und Gewerbemuseum Sagar",
    "phone": "(035771) 60896",
    "tourism": "museum",
    "website": "http://www.museum-sagar.de/"
  }
},
{
  "type": "node",
  "id": 378357763,
  "lat": 50.6200342,
  "lon": 12.3047262,
  "tags": {
    "name": "Neuberin Museum",
    "tourism": "museum",
    "wheelchair": "no"
  }
},
{
  "type": "node",
  "id": 386268975,
  "lat": 51.0874312,
  "lon": 13.9242393,
  "tags": {
    "addr:city": "Radeberg",
    "addr:country": "DE",
    "addr:housenumber": "51a",
    "addr:postcode": "01454",
    "addr:street": "Alte Hauptstraße",
    "addr:suburb": "Großerkmannsdorf",
    "name": "Heimatstube Großerkmannsdorf",
    "tourism": "museum"
  }
},
{
  "type": "node",
  "id": 391611980,
  "lat": 51.2928629,
  "lon": 12.5194938,
  "tags": {
    "name": "Lazarettmuseum",
    "tourism": "museum",
    "wheelchair": "limited"
  }
},
{
  "type": "node",
  "id": 392406987,
  "lat": 51.0270549,
  "lon": 14.2155799,
  "tags": {
    "name": "Stadtmuseum",
    "opening_hours": "Tu-Th 10:00-16:00, Fr 10:00-14:00, Sa,Su,PH 13:00-17:00",
    "tourism": "museum",
    "wheelchair": "no"
  }
},
{
  "type": "node",
  "id": 394803544,
  "lat": 50.9540581,
  "lon": 14.0386713,
  "tags": {
    "addr:city": "Struppen",
    "addr:country": "DE",
    "addr:housenumber": "30",
    "addr:postcode": "01796",
    "addr:street": "Robert-Sterl-Straße",
    "addr:suburb": "Naundorf",
    "disused": "yes",
    "name": "Robert-Sterl-Haus",
    "phone": "+49 351 2501275",
    "tourism": "museum",
    "website": "http://www.robert-sterl-haus.de/"
  }
},
{
  "type": "node",
  "id": 399522100,
  "lat": 51.0588837,
  "lon": 13.6408582,
  "tags": {
    "man_made": "watermill",
    "name": "Mühlenmuseum",
    "tourism": "museum",
    "website": "http://www.zschoner-muehle.de/"
  }
},
{
  "type": "node",
  "id": 399805934,
  "lat": 51.0387571,
  "lon": 13.7117738,
  "tags": {
    "addr:city": "Dresden",
    "addr:country": "DE",
    "addr:housenumber": "86",
    "addr:postcode": "01187",
    "addr:street": "Zwickauer Straße",
    "contact:website": "http://www.igbwdresdenaltstadt.de/",
    "lastcheck": "2016-11-04",
    "museum": "railway",
    "name": "Eisenbahn Museum Dresden",
    "operator": "IG Bahnbetriebswerk Dresden-Altstadt e.V.",
    "tourism": "museum",
    "wheelchair": "no"
  }
},
{
  "type": "node",
  "id": 412860192,
  "lat": 50.8451796,
  "lon": 12.9149921,
  "tags": {
    "addr:city": "Chemnitz",
    "addr:housenumber": "12",
    "addr:postcode": "09113",
    "addr:street": "Schloßberg",
    "name": "Schloßbergmuseum Chemnitz",
    "opening_hours": "Tu-Su,PH 11:00-18:00",
    "tourism": "museum",
    "website": "http://www.schlossbergmuseum.de",
    "wheelchair": "yes",
    "wikidata": "Q2244892",
    "wikipedia": "de:Schloßbergmuseum Chemnitz"
  }
},
{
  "type": "node",
  "id": 414142987,
  "lat": 50.8311785,
  "lon": 12.9229836,
  "tags": {
    "historic": "Steinerner Wald",
    "name": "Sterzeleanum im Naturkundemuseum",
    "tourism": "museum",
    "wheelchair": "yes"
  }
},
{
  "type": "node",
  "id": 414142989,
  "lat": 50.8311200,
  "lon": 12.9228355,
  "tags": {
    "name": "Neue Sächsische Galerie Chemnitz",
    "tourism": "museum",
    "website": "http://www.neue-saechsische-galerie.de/",
    "wheelchair": "yes"
  }
},
{
  "type": "node",
  "id": 416044810,
  "lat": 51.3121728,
  "lon": 12.4122658,
  "tags": {
    "addr:city": "Leipzig",
    "addr:country": "DE",
    "addr:housenumber": "212",
    "addr:postcode": "04299",
    "addr:street": "Prager Straße",
    "name": "Museum am Völkerschlachtdenkmal",
    "phone": "+49 341 8780471",
    "tourism": "museum",
    "wheelchair": "limited"
  }
},
{
  "type": "node",
  "id": 416569468,
  "lat": 50.2809415,
  "lon": 12.2400100,
  "tags": {
    "name": "Bademuseum",
    "tourism": "museum",
    "wheelchair": "yes"
  }
},
{
  "type": "node",
  "id": 417613950,
  "lat": 50.8751085,
  "lon": 13.0267770,
  "tags": {
    "addr:city": "Niederwiesa",
    "addr:country": "DE",
    "addr:housenumber": "16",
    "addr:postcode": "09577",
    "addr:street": "Inselsteig",
    "addr:suburb": "Braunsdorf",
    "name": "Schauweberei Tannenhauer",
    "opening_hours": "We-Su 11:00-17:00; Nov-Apr off",
    "phone": "+49 37206 899800",
    "tourism": "museum"
  }
},
{
  "type": "node",
  "id": 429661269,
  "lat": 50.8602974,
  "lon": 13.3194381,
  "tags": {
    "abandoned:man_made": "mineshaft",
    "description": "Rekonstruiertes Schaubergwerk",
    "heritage": "4",
    "heritage:operator": "lfd",
    "image": "http://geo.hlipp.de/photo/9201",
    "name": "Bartholomäusschacht",
    "ref:lfd": "09208635",
    "resource": "silver",
    "start_date": "1529",
    "tourism": "museum",
    "wikimedia_commons": "Category:Bartholomäusschacht"
  }
},
{
  "type": "node",
  "id": 443725166,
  "lat": 51.0533764,
  "lon": 12.6960737,
  "tags": {
    "name": "Heimatmuseum",
    "opening_hours": "Tu,Th 10:00-17:00; We 09:00-15:00; Sa 14:00-17:00",
    "tourism": "museum",
    "wheelchair": "limited"
  }
},
{
  "type": "node",
  "id": 447875702,
  "lat": 51.4725275,
  "lon": 13.0074500,
  "tags": {
    "name": "Dorfmuseum",
    "tourism": "museum"
  }
},
{
  "type": "node",
  "id": 449121571,
  "lat": 50.5033634,
  "lon": 12.5343862,
  "tags": {
    "addr:city": "Schönheide",
    "addr:housenumber": "49",
    "addr:postcode": "08304",
    "addr:street": "Hauptstraße",
    "name": "Bürsten- und Heimatmuseum",
    "tourism": "museum"
  }
},
{
  "type": "node",
  "id": 451731521,
  "lat": 51.0681147,
  "lon": 12.5371259,
  "tags": {
    "name": "Bauernmuseum",
    "tourism": "museum"
  }
},
{
  "type": "node",
  "id": 454119547,
  "lat": 50.9625000,
  "lon": 13.6408531,
  "tags": {
    "name": "Deutsches Stuhlbaumuseum",
    "opening_hours": "Tu-Th 10:00-16:00; Fr 10:00-14:00; Su,PH 13:00-17:00",
    "phone": "+49 351 6413611",
    "tourism": "museum",
    "website": "http://www.deutsches-stuhlbaumuseum.de",
    "wheelchair": "no"
  }
},
{
  "type": "node",
  "id": 460422854,
  "lat": 51.2745462,
  "lon": 14.5842132,
  "tags": {
    "addr:city": "Malschwitz",
    "addr:country": "DE",
    "addr:housenumber": "30",
    "addr:postcode": "02694",
    "addr:street": "Warthaer Dorfstraße",
    "contact:website": "www.schulmuseum-wartha.de",
    "name": "Schulmuseum „Korla Awgust Kocor“",
    "name:hsb": "Šulski muzej „Korla Awgust Kocor“",
    "tourism": "museum"
  }
},
{
  "type": "node",
  "id": 476903914,
  "lat": 51.1394750,
  "lon": 13.4071426,
  "tags": {
    "name": "Schmalspurbahnmuseum Löthain",
    "tourism": "museum"
  }
},
{
  "type": "node",
  "id": 477285632,
  "lat": 51.1636119,
  "lon": 13.2736799,
  "tags": {
    "name": "Schleinitz",
    "tourism": "museum"
  }
},
{
  "type": "node",
  "id": 489368350,
  "lat": 51.1446133,
  "lon": 14.0204839,
  "tags": {
    "name": "Technisches Museum der Bandweberei",
    "tourism": "museum",
    "wheelchair": "yes"
  }
},
{
  "type": "node",
  "id": 495354103,
  "lat": 51.2712678,
  "lon": 14.3285166,
  "tags": {
    "name": "Heimatmuseum Neschwitz",
    "name:hsb": "Domizniski muzej Njeswaćidło",
    "opening_hours": "Su 13:00-17:00",
    "tourism": "museum"
  }
},
{
  "type": "node",
  "id": 498754143,
  "lat": 51.0534657,
  "lon": 13.7346385,
  "tags": {
    "addr:housenumber": "1",
    "addr:street": "Theaterplatz",
    "name": "Gemäldegalerie Alte Meister",
    "name:de": "Gemäldegalerie Alte Meister",
    "name:lt": "Senųjų meistrų paveikslų galerija",
    "name:pl": "Galeria Obrazów Starych Mistrzów",
    "name:ru": "Дрезденская галерея старых мастеров",
    "name:uk": "Дрезденська картинна галерея",
    "opening_hours": "Tu-Su 10:00-18:00",
    "phone": "+49 351 49142 000",
    "tourism": "museum",
    "website": "http://www.skd.museum/de/museen-institutionen/zwinger-mit-semperbau/gemaeldegalerie-alte-meister/index.html",
    "wheelchair": "yes",
    "wikidata": "Q4890",
    "wikipedia": "de:Gemäldegalerie Alte Meister"
  }
},
{
  "type": "node",
  "id": 499580843,
  "lat": 51.4017437,
  "lon": 12.9192222,
  "tags": {
    "name": "Geoportal Museum",
    "tourism": "museum"
  }
},
{
  "type": "node",
  "id": 502399251,
  "lat": 50.6547598,
  "lon": 13.0646309,
  "tags": {
    "name": "Museum",
    "tourism": "museum",
    "wheelchair": "no"
  }
},
{
  "type": "node",
  "id": 503562229,
  "lat": 50.9532889,
  "lon": 14.8775957,
  "tags": {
    "addr:city": "Zittau",
    "addr:country": "DE",
    "addr:housenumber": "31",
    "addr:postcode": "02788",
    "addr:street": "Hirschfelder Straße",
    "addr:suburb": "Dittelsdorf",
    "name": "Museum Dittelsdorf",
    "tourism": "museum"
  }
},
{
  "type": "node",
  "id": 504578741,
  "lat": 50.6766212,
  "lon": 13.4668295,
  "tags": {
    "addr:city": "Neuhausen/Erzgeb.",
    "addr:country": "DE",
    "addr:housenumber": "20-24",
    "addr:postcode": "09544",
    "addr:street": "Bahnhofstraße",
    "email": "info@nussknackermuseum-neuhausen.de",
    "fax": "+49 37361 14876",
    "name": "Nußknackermuseum",
    "opening_hours": "Mo-Fr 09:00-18:00; Sa,Su,PH 09:00-17:00",
    "phone": "+49 37361 4161",
    "shop": "folk_art",
    "source": "survey, georef picture",
    "tourism": "museum",
    "website": "www.nussknackermuseum-neuhausen.de"
  }
},
{
  "type": "node",
  "id": 504578812,
  "lat": 50.6766758,
  "lon": 13.4668437,
  "tags": {
    "addr:city": "Neuhausen/Erzgeb.",
    "addr:country": "DE",
    "addr:housenumber": "20-24",
    "addr:postcode": "09544",
    "addr:street": "Bahnhofstraße",
    "fax": "+49 37361 14876",
    "name": "technisches Museum \"Alte Stuhlfabrik\"",
    "opening_hours": "Mo-Fr 09:00-18:00; Sa,Su,PH 09:00-17:00",
    "phone": "+49 37361 4161",
    "source": "survey, georef picture",
    "tourism": "museum"
  }
},
{
  "type": "node",
  "id": 506496470,
  "lat": 51.1973538,
  "lon": 13.3090177,
  "tags": {
    "addr:city": "Lommatzsch",
    "addr:country": "DE",
    "addr:housenumber": "14",
    "addr:postcode": "01623",
    "addr:street": "Am Markt",
    "name": "Stadtmuseum Lommatzsch",
    "opening_hours": "Tu-Th 10:00-16:00; Fr 10:00-14:00; Sa,Su 14:00-16:00",
    "phone": "+49 35241 51490",
    "tourism": "museum"
  }
},
{
  "type": "node",
  "id": 510981125,
  "lat": 50.9193652,
  "lon": 14.8128149,
  "tags": {
    "name": "Dorfmuseum des Heimatvereins Eckartsberg",
    "tourism": "museum"
  }
},
{
  "type": "node",
  "id": 511183317,
  "lat": 51.3462947,
  "lon": 12.2583387,
  "tags": {
    "name": "Heimatverein Rückmarsdorf",
    "tourism": "museum"
  }
},
{
  "type": "node",
  "id": 519177218,
  "lat": 50.5337871,
  "lon": 12.6933529,
  "tags": {
    "name": "Spirituosenmuseum",
    "tourism": "museum",
    "wheelchair": "limited"
  }
},
{
  "type": "node",
  "id": 519915280,
  "lat": 50.6491694,
  "lon": 12.9292352,
  "tags": {
    "name": "Berghaus",
    "tourism": "museum"
  }
},
{
  "type": "node",
  "id": 523116189,
  "lat": 50.9439181,
  "lon": 13.9438019,
  "tags": {
    "addr:city": "Pirna",
    "addr:country": "DE",
    "addr:housenumber": "45m",
    "addr:postcode": "01796",
    "addr:street": "Rottwerndorfer Straße",
    "name": "DDR Museum Pirna",
    "tourism": "museum",
    "website": "http://www.ddr-museum-pirna.de"
  }
},
{
  "type": "node",
  "id": 528922150,
  "lat": 51.2768391,
  "lon": 12.9420937,
  "tags": {
    "addr:city": "Wermsdorf",
    "addr:housenumber": "21",
    "addr:postcode": "04779",
    "addr:street": "Hubertusburg",
    "name": "Karl Hans Janke",
    "operator": "Rosengarten e. V.",
    "tourism": "museum",
    "website": "http://www.karl-hans-janke.de/"
  }
},
{
  "type": "node",
  "id": 529290677,
  "lat": 51.0637680,
  "lon": 13.7456708,
  "tags": {
    "name": "Erich-Kästner-Museum",
    "phone": "+49 351 8045086",
    "tourism": "museum",
    "website": "http://www.erich-kaestner-museum.de",
    "wheelchair": "limited",
    "wikidata": "Q1352684",
    "wikipedia": "de:Erich Kästner Museum"
  }
},
{
  "type": "node",
  "id": 542489476,
  "lat": 51.0467531,
  "lon": 14.8254836,
  "tags": {
    "name": "Heimatmuseum",
    "tourism": "museum"
  }
},
{
  "type": "node",
  "id": 558516065,
  "lat": 51.0811115,
  "lon": 14.5952719,
  "tags": {
    "name": "Agrarmuseum",
    "tourism": "museum"
  }
},
{
  "type": "node",
  "id": 560821679,
  "lat": 50.9236373,
  "lon": 14.2840433,
  "tags": {
    "heritage": "yes",
    "historic": "yes",
    "image": "http://commons.wikimedia.org/wiki/File:Ottendorf_(Kirnitzschtal)_Neumannmühle_(04-2).jpg",
    "man_made": "watermill",
    "name": "Neumannmühle",
    "tourism": "museum",
    "wheelchair": "no",
    "wikidata": "Q1626662",
    "wikipedia": "de:Neumannmühle (Sächsische Schweiz)"
  }
},
{
  "type": "node",
  "id": 565057709,
  "lat": 51.5057510,
  "lon": 12.8745842,
  "tags": {
    "heritage": "yes",
    "image": "https://commons.wikimedia.org/wiki/File%3AAudenhain_Paltrockmuehle.jpg",
    "man_made": "windmill",
    "name": "Paltrockmühle Audenhain",
    "tourism": "museum",
    "website": "http://muehlen-nordsachsen.de/cms/index.php?option=com_content&task=view&id=14&Itemid=33"
  }
},
{
  "type": "node",
  "id": 567085597,
  "lat": 50.7175723,
  "lon": 12.4945692,
  "tags": {
    "addr:city": "Zwickau",
    "addr:country": "DE",
    "addr:housenumber": "5-8",
    "addr:postcode": "08056",
    "addr:street": "Domhof",
    "addr:suburb": "Innenstadt",
    "name": "Priesterhäuser Zwickau",
    "tourism": "museum",
    "wheelchair": "limited"
  }
},
{
  "type": "node",
  "id": 567344233,
  "lat": 50.7272477,
  "lon": 12.5833288,
  "tags": {
    "name": "Härtelhaus",
    "tourism": "museum"
  }
},
{
  "type": "node",
  "id": 575143914,
  "lat": 51.0581656,
  "lon": 13.3014344,
  "tags": {
    "name": "Museum im Saalbau",
    "tourism": "museum"
  }
},
{
  "type": "node",
  "id": 601507284,
  "lat": 50.9743930,
  "lon": 12.8405030,
  "tags": {
    "tourism": "museum"
  }
},
{
  "type": "node",
  "id": 603731605,
  "lat": 51.2471330,
  "lon": 14.0144422,
  "tags": {
    "addr:housenumber": "18",
    "addr:postcode": "01920",
    "addr:street": "Dorfstraße",
    "name": "Schauanlage und Museum der Granitindustrie e.V.",
    "tourism": "museum",
    "website": "http://prellebruch.de"
  }
},
{
  "type": "node",
  "id": 619124379,
  "lat": 50.9629161,
  "lon": 12.7574347,
  "tags": {
    "name": "Eisenbahnmuseum",
    "tourism": "museum"
  }
},
{
  "type": "node",
  "id": 662296085,
  "lat": 51.3366411,
  "lon": 13.3344299,
  "tags": {
    "name": "Sächsisches Feuerwehrmuseum Zeithain",
    "tourism": "museum"
  }
},
{
  "type": "node",
  "id": 672868950,
  "lat": 51.0628362,
  "lon": 14.8842213,
  "tags": {
    "name": "Heimatstube",
    "tourism": "museum"
  }
},
{
  "type": "node",
  "id": 679653016,
  "lat": 51.1572163,
  "lon": 12.2787426,
  "tags": {
    "addr:city": "Groitzsch",
    "addr:postcode": "04539",
    "name": "Stadtmuseum",
    "tourism": "museum",
    "wheelchair": "no",
    "wheelchair:description": "Denkmal geschütztes Haus"
  }
},
{
  "type": "node",
  "id": 681773696,
  "lat": 50.8035977,
  "lon": 13.5388737,
  "tags": {
    "name": "Gottfried-Silbermann-Museum",
    "opening_hours": "Mo off; Tu-Su 10:00-16:00 || \"sowie nach Absprache\"",
    "tourism": "museum"
  }
},
{
  "type": "node",
  "id": 685645499,
  "lat": 50.5982783,
  "lon": 13.1233255,
  "tags": {
    "name": "Preßnitztalmuseum",
    "opening_hours": "Su 13:30-16:30",
    "tourism": "museum"
  }
},
{
  "type": "node",
  "id": 693214447,
  "lat": 51.3922605,
  "lon": 12.4557221,
  "tags": {
    "addr:city": "Leipzig",
    "addr:country": "DE",
    "addr:housenumber": "23",
    "addr:postcode": "04349",
    "addr:street": "Plaußiger Dorfstraße",
    "name": "Naturschutzstation Plaussig",
    "opening_hours": "Mo-Su 07:00-16:00; Fr 07:00-14:00",
    "tourism": "museum"
  }
},
{
  "type": "node",
  "id": 697178630,
  "lat": 51.0702670,
  "lon": 14.9606088,
  "tags": {
    "name": "Bahnhof Hagenwerder",
    "tourism": "museum"
  }
},
{
  "type": "node",
  "id": 708983614,
  "lat": 51.5027803,
  "lon": 12.8574681,
  "tags": {
    "name": "Heimatstube",
    "phone": "+49 34244 50670",
    "tourism": "museum"
  }
},
{
  "type": "node",
  "id": 722162621,
  "lat": 50.7173925,
  "lon": 12.4961658,
  "tags": {
    "addr:city": "Zwickau",
    "addr:country": "DE",
    "addr:postcode": "08056",
    "addr:suburb": "Innenstadt",
    "name": "Robert-Schumann-Haus",
    "tourism": "museum",
    "wheelchair": "limited"
  }
},
{
  "type": "node",
  "id": 725189441,
  "lat": 51.0340510,
  "lon": 14.4069807,
  "tags": {
    "name": "Oberlausitzer Forstmuseum",
    "tourism": "museum"
  }
},
{
  "type": "node",
  "id": 737164204,
  "lat": 51.0407670,
  "lon": 13.0232882,
  "tags": {
    "name": "Schloss Ehrenberg",
    "tourism": "museum"
  }
},
{
  "type": "node",
  "id": 738413594,
  "lat": 50.8761505,
  "lon": 12.6059104,
  "tags": {
    "name": "Naturalienkabinett und Stadtmuseum",
    "tourism": "museum",
    "website": "www.museum-waldenburg.de"
  }
},
{
  "type": "node",
  "id": 757248957,
  "lat": 50.7136633,
  "lon": 12.9836513,
  "tags": {
    "name": "Strumpfmuseum",
    "tourism": "museum"
  }
},
{
  "type": "node",
  "id": 759805586,
  "lat": 51.2316965,
  "lon": 14.6015331,
  "tags": {
    "name": "Basaltwerk Baruth",
    "tourism": "museum"
  }
},
{
  "type": "node",
  "id": 767898059,
  "lat": 51.1966756,
  "lon": 14.6584858,
  "tags": {
    "addr:city": "Weißenberg",
    "addr:country": "DE",
    "addr:housenumber": "3",
    "addr:postcode": "02627",
    "addr:street": "Markt",
    "name": "Alte Pfefferküchlerei",
    "phone": "+49 35876 40429",
    "tourism": "museum"
  }
},
{
  "type": "node",
  "id": 772369020,
  "lat": 51.3532953,
  "lon": 12.2532804,
  "tags": {
    "addr:city": "Leipzig",
    "addr:country": "DE",
    "addr:housenumber": "26",
    "addr:postcode": "04178",
    "addr:street": "Bienitzstraße",
    "name": "Heimatverein Burghausen e.V.",
    "tourism": "museum",
    "website": "http://burghausen-bienitz.de/"
  }
},
{
  "type": "node",
  "id": 793933386,
  "lat": 50.5666615,
  "lon": 12.3623385,
  "tags": {
    "name": "Stadtmuseum",
    "tourism": "museum"
  }
},
{
  "type": "node",
  "id": 810642333,
  "lat": 50.7458909,
  "lon": 13.0688848,
  "tags": {
    "addr:city": "Zschopau",
    "addr:housenumber": "1",
    "addr:postcode": "09405",
    "addr:street": "Schloßhof",
    "fax": "+493725 287180",
    "name": "Motorradmuseum",
    "opening_hours": "Winter-  10.00 - 16.00 Sommer  10.00 - 17.00 Uhr",
    "operator": "Stadt Zschopau",
    "phone": "+493725 287170",
    "tourism": "museum",
    "website": "http://www.zschopau.de/de/tourismus-freizeit/schloss-wildeck/museen/ausstellung",
    "wheelchair": "yes"
  }
},
{
  "type": "node",
  "id": 875636016,
  "lat": 51.0182274,
  "lon": 12.5756914,
  "tags": {
    "name": "Burg Gnandstein",
    "tourism": "museum",
    "website": "http://www.burg-museum-gnandstein.de/",
    "wheelchair": "no"
  }
},
{
  "type": "node",
  "id": 886776324,
  "lat": 50.9930808,
  "lon": 14.6476646,
  "tags": {
    "addr:city": "Kottmar",
    "addr:country": "DE",
    "addr:housenumber": "214a",
    "addr:postcode": "02739",
    "addr:street": "Hauptstraße",
    "addr:suburb": "Eibau",
    "email": "museum@eibau.de",
    "fax": "+49 3586 780439",
    "name": "Heimat- und Humboldtmuseum",
    "opening_hours": "Apr-Oct Mo,Tu,Th,Fr 09:00-12:00,13:00-17:00; Sa-Su 13:00-18:00; PH 13:00-18:00; Nov-Dec,Jan-Mar Mo,Tu,Th,Fr 09:00-12:00,13:00-16:00; Sa-Su 13:00-17:00; PH 13:00-17:00; We off",
    "phone": "+49 3586 387073",
    "tourism": "museum"
  }
},
{
  "type": "node",
  "id": 901818424,
  "lat": 50.6307553,
  "lon": 12.8178864,
  "tags": {
    "man_made": "adit",
    "name": "\"Neues Glück\"",
    "resource": "iron_ore",
    "tourism": "museum"
  }
},
{
  "type": "node",
  "id": 904604661,
  "lat": 50.9864333,
  "lon": 12.9762448,
  "tags": {
    "addr:city": "Mittweida",
    "addr:country": "DE",
    "addr:housenumber": "62",
    "addr:postcode": "09648",
    "addr:street": "Rochlitzer Straße",
    "name": "Raumfahrtmuseum Mittweida",
    "opening_hours": "Su[-1] 16:00-18:00 || Mo-Su \"Groups of 12+ with registration\"",
    "operator": "Space Service International",
    "tourism": "museum",
    "website": "http://www.space-service-intl.com/museum.htm"
  }
},
{
  "type": "node",
  "id": 911077352,
  "lat": 50.3904296,
  "lon": 12.3277664,
  "tags": {
    "amenity": "restaurant",
    "microbrewery": "no",
    "name": "Brauereimuseum",
    "tourism": "museum",
    "wheelchair": "no"
  }
},
{
  "type": "node",
  "id": 911113816,
  "lat": 50.9206420,
  "lon": 13.3400480,
  "tags": {
    "addr:city": "Freiberg",
    "addr:country": "DE",
    "addr:housenumber": "4",
    "addr:postcode": "09599",
    "addr:street": "Schloßplatz",
    "email": "Fuehrungen@terra-mineralia.de",
    "fax": "+49 3731 394671",
    "name": "terra mineralia Mineralienausstellung",
    "opening_hours": "Mo-Fr 09:00-17:00; Sa-Su 09:00-18:00",
    "operator": "Technischen Universität Bergakademie Freiberg",
    "phone": "+49 3731 394654",
    "toilets:wheelchair": "yes",
    "tourism": "museum",
    "website": "http://www.terra-mineralia.de/",
    "wheelchair": "yes",
    "wheelchair:description": "Behinderten-WC und -parkplatz, sowie Aufzug vorhanden"
  }
},
{
  "type": "node",
  "id": 914675868,
  "lat": 50.6069142,
  "lon": 13.0888590,
  "tags": {
    "name": "Mauersberger-Museum",
    "tourism": "museum"
  }
},
{
  "type": "node",
  "id": 918361520,
  "lat": 50.8122611,
  "lon": 13.0994154,
  "tags": {
    "name": "Kutschensammlung",
    "tourism": "museum",
    "wheelchair": "limited"
  }
},
{
  "type": "node",
  "id": 924082075,
  "lat": 51.0298666,
  "lon": 13.3072934,
  "tags": {
    "name": "Amalie-Dietrich-Gedenkstätte",
    "opening_hours": "Su 14:00-17:00 || \"nach telefonischer Vereinbarung\"",
    "phone": "+49 37328 89930",
    "tourism": "museum"
  }
},
{
  "type": "node",
  "id": 937093859,
  "lat": 50.5803999,
  "lon": 12.2861538,
  "tags": {
    "name": "Vogtländisches Goldmuseum und Naturalienkabinett",
    "tourism": "museum"
  }
},
{
  "type": "node",
  "id": 943481874,
  "lat": 50.4156418,
  "lon": 12.4597855,
  "tags": {
    "name": "Grube Tannenberg (Stolln 176)",
    "tourism": "museum"
  }
},
{
  "type": "node",
  "id": 947943835,
  "lat": 50.7175382,
  "lon": 12.4952007,
  "tags": {
    "addr:city": "Zwickau",
    "addr:country": "DE",
    "addr:housenumber": "2",
    "addr:postcode": "08056",
    "addr:street": "Domhof",
    "addr:suburb": "Innenstadt",
    "name": "Galerie am Domhof",
    "tourism": "museum",
    "wheelchair": "no"
  }
},
{
  "type": "node",
  "id": 963664686,
  "lat": 50.8964391,
  "lon": 14.1305713,
  "tags": {
    "name": "Feuerwehrmuseum",
    "tourism": "museum"
  }
},
{
  "type": "node",
  "id": 965944208,
  "lat": 50.7168693,
  "lon": 12.4958777,
  "tags": {
    "name": "Schiffchen",
    "tourism": "museum"
  }
},
{
  "type": "node",
  "id": 976329656,
  "lat": 50.4165309,
  "lon": 12.4528325,
  "tags": {
    "name": "Vogtländisch-Böhmisches Mineralienzentrum",
    "phone": "+49 37465 40800",
    "tourism": "museum"
  }
},
{
  "type": "node",
  "id": 979032588,
  "lat": 50.2897605,
  "lon": 12.3654700,
  "tags": {
    "name": "DDR-Museum",
    "tourism": "museum"
  }
},
{
  "type": "node",
  "id": 979033037,
  "lat": 50.3131414,
  "lon": 12.3686278,
  "tags": {
    "name": "Obervogtländisches Dorfmuseum",
    "tourism": "museum"
  }
},
{
  "type": "node",
  "id": 981306034,
  "lat": 50.9688091,
  "lon": 13.1280724,
  "tags": {
    "addr:city": "Hainichen",
    "addr:country": "DE",
    "addr:housenumber": "10",
    "addr:postcode": "09661",
    "addr:street": "Oederaner Straße",
    "name": "Gellert-Museum",
    "tourism": "museum"
  }
},
{
  "type": "node",
  "id": 990223891,
  "lat": 50.9270873,
  "lon": 12.8535157,
  "tags": {
    "addr:city": "Claußnitz",
    "addr:country": "DE",
    "addr:housenumber": "100",
    "addr:postcode": "09236",
    "addr:street": "Hauptstraße",
    "museum": "railway",
    "name": "Museumsbahnhof Markersdorf-Taura",
    "railway": "museum",
    "tourism": "museum"
  }
},
{
  "type": "node",
  "id": 994059324,
  "lat": 51.1545565,
  "lon": 13.4078690,
  "tags": {
    "name": "Bergbaumuseum Glückauf-Schacht Mehren",
    "phone": "+49 3521 402547",
    "tourism": "museum"
  }
},
{
  "type": "node",
  "id": 997521232,
  "lat": 50.9733294,
  "lon": 14.2793977,
  "tags": {
    "addr:city": "Sebnitz",
    "addr:country": "DE",
    "addr:housenumber": "60",
    "addr:postcode": "01855",
    "addr:street": "Lange Straße",
    "name": "Modellbahngalerie",
    "phone": "+49 35971 90327",
    "tourism": "museum",
    "website": "www.tillig.com"
  }
},
{
  "type": "node",
  "id": 1058957133,
  "lat": 50.4230660,
  "lon": 12.1838340,
  "tags": {
    "addr:city": "Oelsnitz/Vogtl.",
    "addr:housenumber": "32",
    "addr:postcode": "08606",
    "addr:street": "Schlosstraße",
    "name": "Teppichmuseum Oelsnitz",
    "opening_hours": "Tu-Su 11:00-17:00",
    "tourism": "museum",
    "website": "http://www.schloss-voigtsberg.de/",
    "wheelchair": "yes"
  }
},
{
  "type": "node",
  "id": 1090453037,
  "lat": 51.0051609,
  "lon": 12.7722944,
  "tags": {
    "name": "Heimatmuseum",
    "tourism": "museum"
  }
},
{
  "type": "node",
  "id": 1106471524,
  "lat": 51.3314796,
  "lon": 12.3380047,
  "tags": {
    "addr:city": "Leipzig",
    "addr:country": "DE",
    "addr:housenumber": "26",
    "addr:postcode": "04229",
    "addr:street": "Zschochersche Straße",
    "name": "Kindermuseum",
    "opening_hours": "Mo-Su 10:00-18:00",
    "operator": "UNIKATUM Kindermuseum gemeinnützige GmbH",
    "tourism": "museum",
    "website": "www.kindermuseum-unikatum.de",
    "wheelchair": "no",
    "wikidata": "Q2494394",
    "wikipedia": "de:Kindermuseum Leipzig"
  }
},
{
  "type": "node",
  "id": 1120097249,
  "lat": 51.0301039,
  "lon": 13.7022523,
  "tags": {
    "addr:city": "Dresden",
    "addr:country": "DE",
    "addr:housenumber": "21",
    "addr:postcode": "01187",
    "addr:street": "Altplauen",
    "name": "Museum Hofmühle",
    "opening_hours": "Tu, We, Th 16:00-18:00; Su 14:00-18:00",
    "tourism": "museum",
    "website": "http://bienertmuehle.com/hier-sind-taetig/museum-und-bienerts-laden/",
    "wheelchair": "limited",
    "wikidata": "Q1635322",
    "wikipedia": "de:Museum Hofmühle Dresden"
  }
},
{
  "type": "node",
  "id": 1145614019,
  "lat": 50.5393508,
  "lon": 11.9277431,
  "tags": {
    "name": "DDR-Museum",
    "opening_hours": "Tu 16:00-18:00",
    "tourism": "museum"
  }
},
{
  "type": "node",
  "id": 1149143483,
  "lat": 51.0514585,
  "lon": 13.7415735,
  "tags": {
    "amenity": "restaurant",
    "name": "Museumsgastronomie Dresden 1900",
    "opening_hours": "Mo-Sa 08:00-01:00, Su 09:00-00:00",
    "toilets:wheelchair": "yes",
    "tourism": "museum",
    "website": "www.dresden1900.de",
    "wheelchair": "yes"
  }
},
{
  "type": "node",
  "id": 1165469744,
  "lat": 51.3387873,
  "lon": 12.3723300,
  "tags": {
    "addr:city": "Leipzig",
    "addr:country": "DE",
    "addr:housenumber": "15-16",
    "addr:postcode": "04109",
    "addr:street": "Thomaskirchhof",
    "name": "Bach-Museum Leipzig",
    "tourism": "museum",
    "website": "http://www.bach-leipzig.de/",
    "wheelchair": "yes",
    "wikidata": "Q18748122",
    "wikipedia": "de:Bach-Museum Leipzig"
  }
},
{
  "type": "node",
  "id": 1165483068,
  "lat": 51.3388240,
  "lon": 12.3729546,
  "tags": {
    "addr:city": "Leipzig",
    "addr:country": "DE",
    "addr:housenumber": "12",
    "addr:postcode": "04109",
    "addr:street": "Thomaskirchhof",
    "alt_name": "Sächsisches Apotheken-Museum",
    "name": "Apotheken- Museum",
    "tourism": "museum",
    "website": "http://www.apothekenmuseum.de",
    "wheelchair": "no"
  }
},
{
  "type": "node",
  "id": 1166460294,
  "lat": 51.3298943,
  "lon": 12.3292127,
  "tags": {
    "name": "Automatikmuseum",
    "tourism": "museum"
  }
},
{
  "type": "node",
  "id": 1166652127,
  "lat": 51.3408201,
  "lon": 12.3785984,
  "tags": {
    "addr:city": "Leipzig",
    "addr:country": "DE",
    "addr:housenumber": "2",
    "addr:postcode": "04109",
    "addr:street": "Nikolaikirchhof",
    "name": "Antikenmuseum der Universität Leipzig",
    "tourism": "museum",
    "website": "http://www.uni-leipzig.de/~antik/",
    "wheelchair": "limited"
  }
},
{
  "type": "node",
  "id": 1166658243,
  "lat": 51.3398517,
  "lon": 12.3799609,
  "tags": {
    "addr:city": "Leipzig",
    "addr:country": "DE",
    "addr:housenumber": "2",
    "addr:postcode": "04109",
    "addr:street": "Goethestraße",
    "name": "Ägyptisches Museum",
    "opening_hours": "Tu-Fr 13:00-17:00, Sa,Su 10:00-17:00, PH 10:00-17:00",
    "tourism": "museum",
    "website": "http://www.uni-leipzig.de/~egypt/",
    "wheelchair": "limited"
  }
},
{
  "type": "node",
  "id": 1170885711,
  "lat": 50.4643886,
  "lon": 12.8107681,
  "tags": {
    "man_made": "watermill",
    "name": "Papiermühle Weigel",
    "tourism": "museum",
    "website": "http://www.muehlen-dgm-ev.de/pages/Detailed/961.php"
  }
},
{
  "type": "node",
  "id": 1197225508,
  "lat": 50.8922440,
  "lon": 13.6668514,
  "tags": {
    "addr:city": "Dippoldiswalde",
    "addr:country": "DE",
    "addr:housename": "Museum",
    "addr:housenumber": "18",
    "addr:postcode": "01744",
    "addr:street": "Freiberger Straße",
    "check_date": "2014-11-02",
    "email": "museum@dippoldiswalde.de",
    "entrance": "main",
    "image": "http://commons.wikimedia.org/wiki/File:Lohgerber-Museum_in_Dippoldiswalde.jpg",
    "name": "Lohgerbermuseum",
    "opening_hours": "Tu-Fr 10:00-17:00; Sa-Su 13:00-17:00",
    "phone": "+49 3504 612418",
    "tourism": "museum",
    "website": "http://www.lohgerbermuseum.de/",
    "xmas:day_date": "08.11.2014 - 22.02.2015",
    "xmas:feature": "event",
    "xmas:name": "Weihnachtsausstellung"
  }
},
{
  "type": "node",
  "id": 1199825509,
  "lat": 51.0525386,
  "lon": 13.7367510,
  "tags": {
    "level": "2",
    "name": "Türckische Cammer",
    "name:de": "Türckische Cammer",
    "name:pl": "Komnata Turecka",
    "opening_hours": "Mo-Su 10:00-18:00; Tu off",
    "operator": "Staatliche Kunstsammlungen Dresden",
    "tourism": "museum",
    "website": "http://www.skd.museum/de/museen-institutionen/residenzschloss/ruestkammer/tuerckische-cammer/index.html",
    "wheelchair": "yes",
    "wikidata": "Q574088",
    "wikipedia": "de:Türckische Cammer"
  }
},
{
  "type": "node",
  "id": 1210695729,
  "lat": 51.1444268,
  "lon": 12.6420065,
  "tags": {
    "name": "Kur- und Stadtmuseum",
    "opening_hours": "Th-Sa 13:00-17:00; Su 14:00-17:00",
    "tourism": "museum"
  }
},
{
  "type": "node",
  "id": 1251049579,
  "lat": 51.1947248,
  "lon": 14.5984200,
  "tags": {
    "name:de": "Martin-Nowak-Neumann-Haus",
    "name:hsb": "Dom Měrćina Nowaka-Njechorńskeho",
    "tourism": "museum"
  }
},
{
  "type": "node",
  "id": 1289402345,
  "lat": 50.5794735,
  "lon": 13.0021339,
  "tags": {
    "addr:city": "Annaberg-Buchholz",
    "addr:country": "DE",
    "addr:housenumber": "2",
    "addr:postcode": "09456",
    "addr:street": "Buchholzer Straße",
    "name": "Manufaktur der Träume",
    "opening_hours": "Mo-Su 10:00-18:00; Dec 24 10:00-14:00; Dec 31 10:00-14:00",
    "tourism": "museum",
    "website": "http://www.manufaktur-der-traeume.de/",
    "wheelchair": "yes",
    "wikidata": "Q1891851",
    "wikipedia": "de:Manufaktur der Träume"
  }
},
{
  "type": "node",
  "id": 1328665266,
  "lat": 51.0881450,
  "lon": 12.7767630,
  "tags": {
    "name": "Museum für bäuerliche Kultur",
    "tourism": "museum",
    "wheelchair": "no"
  }
},
{
  "type": "node",
  "id": 1340495570,
  "lat": 51.3542858,
  "lon": 13.4990676,
  "tags": {
    "name": "Bauernmuseum Zabeltitz",
    "tourism": "museum"
  }
},
{
  "type": "node",
  "id": 1363831473,
  "lat": 51.4040717,
  "lon": 14.7931471,
  "tags": {
    "name": "Wolfsmuseum",
    "tourism": "museum",
    "wheelchair": "yes",
    "wheelchair:description": "Rampe am Haus, Toilette im 1. OG nicht erreichbar"
  }
},
{
  "type": "node",
  "id": 1379268856,
  "lat": 51.2366899,
  "lon": 13.0596717,
  "tags": {
    "addr:city": "Mügeln",
    "addr:housenumber": "2a",
    "addr:postcode": "04769",
    "addr:street": "Bahnhofstraße",
    "name": "Wilder Robert",
    "tourism": "museum",
    "website": "https://www.wilder-robert.de/"
  }
},
{
  "type": "node",
  "id": 1379714235,
  "lat": 51.1632030,
  "lon": 13.4725792,
  "tags": {
    "addr:city": "Meißen",
    "addr:country": "DE",
    "addr:postcode": "01662",
    "addr:street": "Heinrichsplatz",
    "name": "Stadtmuseum Meißen",
    "phone": "+49 3521 458857",
    "tourism": "museum",
    "wheelchair": "yes"
  }
},
{
  "type": "node",
  "id": 1381995184,
  "lat": 51.0083337,
  "lon": 13.8711307,
  "tags": {
    "name": "Schlossmuseum im Neuen Palais",
    "tourism": "museum",
    "wheelchair": "limited"
  }
},
{
  "type": "node",
  "id": 1381995186,
  "lat": 51.0094528,
  "lon": 13.8708645,
  "tags": {
    "name": "Kunstgewerbemuseum im Bergpalais",
    "tourism": "museum",
    "wheelchair": "limited"
  }
},
{
  "type": "node",
  "id": 1381995189,
  "lat": 51.0083727,
  "lon": 13.8693921,
  "tags": {
    "name": "Kunstgewerbemuseum im Wasserpalais",
    "tourism": "museum",
    "wheelchair": "limited"
  }
},
{
  "type": "node",
  "id": 1399607522,
  "lat": 51.2737098,
  "lon": 14.3313804,
  "tags": {
    "addr:housenumber": "4",
    "addr:postcode": "02699",
    "addr:street": "Park",
    "name": "Neschwitzer Vogelschutzpavillon",
    "source": "www.vogelschutzpavillon.de",
    "tourism": "museum"
  }
},
{
  "type": "node",
  "id": 1401883146,
  "lat": 50.8437290,
  "lon": 14.7453662,
  "tags": {
    "name": "Schmalspurbahn Museum",
    "tourism": "museum",
    "wheelchair": "no"
  }
},
{
  "type": "node",
  "id": 1415786113,
  "lat": 51.4383978,
  "lon": 14.2471348,
  "tags": {
    "name": "Stadtmuseum Hoyerswerda",
    "name:hsb": "Měšćanski muzej Wojerecy",
    "tourism": "museum",
    "wheelchair": "yes"
  }
},
{
  "type": "node",
  "id": 1416371610,
  "lat": 51.0663472,
  "lon": 13.7575545,
  "tags": {
    "addr:city": "Dresden",
    "addr:country": "DE",
    "addr:housenumber": "12",
    "addr:postcode": "01099",
    "addr:street": "Kamenzer Straße",
    "name": "Herbert-Wehner-Bildungswerk",
    "tourism": "museum",
    "website": "www.wehnerwerk.de",
    "wheelchair": "limited"
  }
},
{
  "type": "node",
  "id": 1427492784,
  "lat": 51.3732554,
  "lon": 13.2552526,
  "tags": {
    "name": "Begegnung an der Elbe",
    "tourism": "museum",
    "wheelchair": "no"
  }
},
{
  "type": "node",
  "id": 1430264851,
  "lat": 50.6184975,
  "lon": 12.2653356,
  "tags": {
    "amenity": "toilets",
    "entrance": "yes",
    "name": "Burmuseum",
    "tourism": "museum"
  }
},
{
  "type": "node",
  "id": 1434440121,
  "lat": 50.8617771,
  "lon": 13.1678559,
  "tags": {
    "name": "Die Weberei - Museum Oederan",
    "opening_hours": "Tu-Fr 12:00-17:00; Sa-Su 12:00-17:00",
    "tourism": "museum",
    "wheelchair": "yes"
  }
},
{
  "type": "node",
  "id": 1442660654,
  "lat": 51.3411731,
  "lon": 12.3730033,
  "tags": {
    "addr:city": "Leipzig",
    "addr:country": "DE",
    "addr:housenumber": "4",
    "addr:postcode": "04109",
    "addr:street": "Kleine Fleischergasse",
    "name": "Kaffee-Museum",
    "tourism": "museum",
    "website": "http://www.coffe-baum.de/museum/",
    "wheelchair": "no"
  }
},
{
  "type": "node",
  "id": 1456803508,
  "lat": 51.1240371,
  "lon": 12.4974200,
  "tags": {
    "addr:city": "Borna",
    "addr:country": "DE",
    "addr:housenumber": "11",
    "addr:postcode": "04552",
    "addr:street": "Markt",
    "name": "Galerie des Museums der Stadt Borna",
    "tourism": "museum",
    "wheelchair": "yes"
  }
},
{
  "type": "node",
  "id": 1457896673,
  "lat": 51.1469930,
  "lon": 14.8908622,
  "tags": {
    "addr:city": "Markersdorf",
    "addr:housenumber": "2",
    "addr:postcode": "02829",
    "addr:street": "Kirchstraße",
    "image": "https://commons.wikimedia.org/wiki/File:Dorfmuseum_Markersdorf_(Januar_2017).jpg",
    "name": "Dorfmuseum Markersdorf",
    "opening_hours": "We-Fr 10:00-16:00; Sa-Su 13:00-17:00",
    "tourism": "museum",
    "wheelchair": "no",
    "wikidata": "Q41367761"
  }
},
{
  "type": "node",
  "id": 1469915011,
  "lat": 50.6373474,
  "lon": 12.8170935,
  "tags": {
    "man_made": "watermill",
    "name": "Technisches Museum Papiermühle Niederzwönitz",
    "tourism": "museum",
    "wikipedia": "de:Niederzwönitz#Technisches Museum Papierm.C3.BChle"
  }
},
{
  "type": "node",
  "id": 1478108484,
  "lat": 50.5876489,
  "lon": 12.6251836,
  "tags": {
    "name": "Siebenschlehener Pochwerk",
    "tourism": "museum"
  }
},
{
  "type": "node",
  "id": 1493540257,
  "lat": 51.3392783,
  "lon": 12.3568424,
  "tags": {
    "addr:city": "Leipzig",
    "addr:country": "DE",
    "addr:housenumber": "7",
    "addr:postcode": "04109",
    "addr:street": "Aachener Straße",
    "contact:fax": "+49 341 2618697",
    "contact:phone": "+49 341 2111194",
    "name": "Deutsches Kleingärtnermuseum",
    "opening_hours": "Sep-May: Tu-Th 10:00-16:00; Jun-Aug: Tu-Th,Sa,Su 10:00-16:00",
    "tourism": "museum",
    "website": "www.kleingarten-museum.de",
    "wikidata": "Q1205770",
    "wikipedia": "de:Deutsches Kleingärtnermuseum"
  }
},
{
  "type": "node",
  "id": 1493544275,
  "lat": 51.3365606,
  "lon": 12.3551620,
  "tags": {
    "addr:city": "Leipzig",
    "addr:country": "DE",
    "addr:housenumber": "7",
    "addr:postcode": "04109",
    "addr:street": "Mainzer Straße",
    "contact:phone": "+49 341 1406140",
    "name": "Sächsisches Psychiatriemuseum",
    "opening_hours": "We-Sa 13:00-18:00",
    "tourism": "museum",
    "website": "www.psychiatriemuseum.de"
  }
},
{
  "type": "node",
  "id": 1508218785,
  "lat": 51.5440668,
  "lon": 14.5393141,
  "tags": {
    "name": "Sorbisches Kulturzentrum",
    "name:hsb": "Serbski kulturny centrum",
    "tourism": "museum"
  }
},
{
  "type": "node",
  "id": 1510741215,
  "lat": 51.5234229,
  "lon": 12.3288562,
  "tags": {
    "addr:city": "Delitzsch",
    "addr:housenumber": "31",
    "addr:postcode": "04509",
    "addr:street": "Schloßstraße",
    "contact:fax": "+49 34202 409",
    "contact:phone": "+49 34202 67208",
    "contact:website": "http://www.barockschloss-delitzsch.de",
    "name": "Barockschloss Delitzsch",
    "opening_hours": "Tu-Su 10:00-17:00",
    "tourism": "museum"
  }
},
{
  "type": "node",
  "id": 1566929632,
  "lat": 51.1191239,
  "lon": 13.9250910,
  "tags": {
    "addr:city": "Radeberg",
    "addr:country": "DE",
    "addr:housenumber": "6",
    "addr:postcode": "01454",
    "addr:street": "Schloßstraße",
    "castle_type": "stately",
    "historic": "castle",
    "name": "Schloss Klippenstein",
    "tourism": "museum",
    "wheelchair": "no"
  }
},
{
  "type": "node",
  "id": 1594611450,
  "lat": 51.1239732,
  "lon": 12.5001354,
  "tags": {
    "addr:city": "Borna",
    "addr:country": "DE",
    "addr:housenumber": "2–4",
    "addr:postcode": "04552",
    "addr:street": "An der Mauer",
    "name": "Museum der Stadt Borna",
    "phone": "+49 3433 27860",
    "tourism": "museum",
    "website": "http://www.museum-borna.de/",
    "wheelchair": "no"
  }
},
{
  "type": "node",
  "id": 1615853518,
  "lat": 51.0237436,
  "lon": 14.2358960,
  "tags": {
    "name": "Hofmühle",
    "tourism": "museum"
  }
},
{
  "type": "node",
  "id": 1640336521,
  "lat": 50.6000706,
  "lon": 12.6747604,
  "tags": {
    "name": "Museum Uranbergbau",
    "opening_hours": "Mo-Th 09:00-17:00, Fr off, Sa-Su,PH 10:00-17:00",
    "tourism": "museum"
  }
},
{
  "type": "node",
  "id": 1643007435,
  "lat": 50.4800782,
  "lon": 12.9736611,
  "tags": {
    "name": "Suppenmuseum",
    "tourism": "museum",
    "website": "http://www.suppenmuseum-neudorf.de/",
    "wikidata": "Q2368156",
    "wikipedia": "de:Suppenmuseum"
  }
},
{
  "type": "node",
  "id": 1655477379,
  "lat": 51.3353221,
  "lon": 12.3861805,
  "tags": {
    "contact:website": "https://www.edvard-grieg.de/",
    "name": "Grieg-Begegnungsstätte",
    "tourism": "museum",
    "wheelchair": "no"
  }
},
{
  "type": "node",
  "id": 1669237872,
  "lat": 51.0167386,
  "lon": 14.7466662,
  "tags": {
    "name": "Heimatmuseum",
    "tourism": "museum",
    "wheelchair": "no"
  }
},
{
  "type": "node",
  "id": 1678714750,
  "lat": 50.3758500,
  "lon": 12.4663256,
  "tags": {
    "addr:city": "Klingenthal",
    "addr:country": "DE",
    "addr:housenumber": "31",
    "addr:postcode": "08248",
    "addr:street": "Falkensteiner Straße",
    "name": "Schaumanufaktur Akkordeonbau",
    "phone": "+49 37467 22407",
    "tourism": "museum"
  }
},
{
  "type": "node",
  "id": 1684203283,
  "lat": 50.7998509,
  "lon": 12.2844059,
  "tags": {
    "name": "Deutsches Landwirtschaftsmuseum",
    "tourism": "museum",
    "wheelchair": "limited"
  }
},
{
  "type": "node",
  "id": 1713212246,
  "lat": 50.8367700,
  "lon": 13.2222760,
  "tags": {
    "addr:city": "Oederan",
    "addr:country": "DE",
    "addr:housenumber": "105",
    "addr:postcode": "09569",
    "addr:street": "Gahlenzer Straße",
    "addr:suburb": "Gahlenz",
    "name": "Dorfmuseum Gahlenz",
    "opening_hours": "Tu-Th 09:00-16:00; Su 14:00-17:00; Fr,Sa,Mo off",
    "tourism": "museum"
  }
},
{
  "type": "node",
  "id": 1721719297,
  "lat": 51.0527038,
  "lon": 13.7362950,
  "tags": {
    "level": "1",
    "name": "Neues Grünes Gewölbe",
    "opening_hours": "Mo-Su 10:00-18:00; Tu off",
    "operator": "Staatliche Kunstsammlungen Dresden",
    "tourism": "museum",
    "website": "http://www.skd.museum/de/museen-institutionen/residenzschloss/gruenes-gewoelbe/neues-gruenes-gewoelbe/index.html",
    "wheelchair": "yes",
    "wikipedia": "de:Grünes Gewölbe#Neues Grünes Gewölbe"
  }
},
{
  "type": "node",
  "id": 1721720561,
  "lat": 51.0525621,
  "lon": 13.7365096,
  "tags": {
    "level": "3",
    "name": "Kupferstich-Kabinett",
    "opening_hours": "Mo-Su 10:00-18:00; Tu off",
    "operator": "Staatliche Kunstsammlungen Dresden",
    "tourism": "museum",
    "website": "http://www.skd.museum/de/museen-institutionen/residenzschloss/muenzkabinett/index.html",
    "wheelchair": "yes",
    "wikidata": "Q570620",
    "wikipedia": "de:Kupferstichkabinett Dresden"
  }
},
{
  "type": "node",
  "id": 1721721621,
  "lat": 51.0530006,
  "lon": 13.7382396,
  "tags": {
    "name": "Münzkabinett",
    "opening_hours": "We 10:00-17:30",
    "operator": "Staatliche Kunstsammlungen Dresden",
    "phone": "+49 351 49143231",
    "tourism": "museum",
    "website": "http://www.skd.museum/de/museen-institutionen/residenzschloss/muenzkabinett/index.html",
    "wheelchair": "no",
    "wikidata": "Q324263",
    "wikipedia": "de:Münzkabinett (Dresden)"
  }
},
{
  "type": "node",
  "id": 1721722077,
  "lat": 51.0522719,
  "lon": 13.7444453,
  "tags": {
    "name": "Galerie Neue Meister",
    "name:ru": "Галерея новых мастеров",
    "tourism": "museum",
    "wheelchair": "yes"
  }
},
{
  "type": "node",
  "id": 1721722214,
  "lat": 51.0519533,
  "lon": 13.7441624,
  "tags": {
    "name": "Skulpturensammlung",
    "tourism": "museum",
    "wheelchair": "yes"
  }
},
{
  "type": "node",
  "id": 1729101965,
  "lat": 51.0525437,
  "lon": 13.7374376,
  "tags": {
    "level": "2",
    "name": "Rüstkammer",
    "opening_hours": "Mo-Su 10:00-18:00; Tu off",
    "operator": "Staatliche Kunstsammlungen Dresden",
    "tourism": "museum",
    "website": "http://www.skd.museum/de/museen-institutionen/residenzschloss/ruestkammer/index.html",
    "wheelchair": "yes"
  }
},
{
  "type": "node",
  "id": 1729139565,
  "lat": 51.0521451,
  "lon": 13.7344575,
  "tags": {
    "name": "Porzellansammlung",
    "opening_hours": "Tu-Su 10:00-18:00",
    "phone": "+49 351 49142 000",
    "tourism": "museum",
    "website": "http://www.skd.museum/de/museen-institutionen/zwinger-mit-semperbau/porzellansammlung/index.html",
    "wheelchair": "limited"
  }
},
{
  "type": "node",
  "id": 1751692066,
  "lat": 51.3657462,
  "lon": 12.9963340,
  "tags": {
    "tourism": "museum"
  }
},
{
  "type": "node",
  "id": 1774508638,
  "lat": 50.9760061,
  "lon": 14.2719837,
  "tags": {
    "addr:city": "Sebnitz",
    "addr:country": "DE",
    "addr:housenumber": "17",
    "addr:postcode": "01855",
    "addr:street": "Bahnhofstraße",
    "name": "Zündfunke",
    "note": "Fahrzeugausstellung",
    "opening_hours": "Tu-Su 10:00-17:00",
    "tourism": "museum",
    "website": "http://www.oldtimertouren-sebnitz.de"
  }
},
{
  "type": "node",
  "id": 1791348370,
  "lat": 50.6836388,
  "lon": 12.5459525,
  "tags": {
    "name": "Herrrenhaus",
    "tourism": "museum",
    "wheelchair": "no"
  }
},
{
  "type": "node",
  "id": 1811616500,
  "lat": 51.2714275,
  "lon": 14.0944235,
  "tags": {
    "name": "Klosterkirche und Sakralmuseum St. Annen",
    "name:hsb": "Klóšterska cyrkej a sakralny muzej swj. Hany",
    "tourism": "museum"
  }
},
{
  "type": "node",
  "id": 1852492216,
  "lat": 51.0286409,
  "lon": 13.7366113,
  "tags": {
    "level": "2",
    "name": "Buchmuseum",
    "tourism": "museum",
    "website": "http://www.slub-dresden.de/ueber-uns/buchmuseum/",
    "wheelchair": "yes"
  }
},
{
  "type": "node",
  "id": 1866077018,
  "lat": 50.8375691,
  "lon": 13.6753102,
  "tags": {
    "addr:city": "Dippoldiswalde",
    "addr:country": "DE",
    "addr:housename": "Bürgerhaus",
    "addr:housenumber": "19",
    "addr:postcode": "01744",
    "addr:street": "Altenberger Straße",
    "addr:suburb": "Schmiedeberg",
    "name": "Schul- und Heimatmuseum",
    "tourism": "museum",
    "wheelchair": "no"
  }
},
{
  "type": "node",
  "id": 1903239010,
  "lat": 51.4037471,
  "lon": 14.7923667,
  "tags": {
    "name": "Ehrlichthof",
    "name:hsb": "Sydlišćo Erlichtec dwór",
    "tourism": "museum",
    "wheelchair": "limited"
  }
},
{
  "type": "node",
  "id": 1908310144,
  "lat": 51.1568608,
  "lon": 13.4655752,
  "tags": {
    "name": "Meissener Porzellanmanufaktur",
    "toilets:wheelchair": "yes",
    "tourism": "museum",
    "wheelchair": "yes"
  }
},
{
  "type": "node",
  "id": 1908453664,
  "lat": 50.7832230,
  "lon": 12.8548496,
  "tags": {
    "name": "Anita",
    "tourism": "museum"
  }
},
{
  "type": "node",
  "id": 1914163121,
  "lat": 51.2899979,
  "lon": 14.1134766,
  "tags": {
    "tourism": "museum"
  }
},
{
  "type": "node",
  "id": 1921939753,
  "lat": 50.3941421,
  "lon": 12.3312677,
  "tags": {
    "name": "Heimatmuseum",
    "tourism": "museum"
  }
},
{
  "type": "node",
  "id": 1958965263,
  "lat": 51.3975283,
  "lon": 14.3307083,
  "tags": {
    "man_made": "tower",
    "name": "Förderturm",
    "tourism": "museum"
  }
},
{
  "type": "node",
  "id": 1970553191,
  "lat": 50.6235326,
  "lon": 12.9250645,
  "tags": {
    "addr:city": "Geyer",
    "addr:country": "DE",
    "addr:housenumber": "10",
    "addr:postcode": "09468",
    "addr:street": "Am Lotterhof",
    "historic": "tower",
    "image": "http://commons.wikimedia.org/wiki/File:Geyer_Wachtturm.jpg",
    "name": "Turmmuseum Geyer",
    "phone": "+49 37346 1244",
    "tourism": "museum",
    "wheelchair": "no"
  }
},
{
  "type": "node",
  "id": 1996703114,
  "lat": 50.8957246,
  "lon": 13.6663587,
  "tags": {
    "addr:city": "Dippoldiswalde",
    "addr:country": "DE",
    "addr:housenumber": "8",
    "addr:postcode": "01744",
    "addr:street": "Kirchplatz",
    "entrance": "main",
    "name": "Osterzgebirgsgalerie im Schloss",
    "opening_hours": "Th-Su 13:00-17:00; We 10:00-16:00",
    "phone": "+49 3504 612418",
    "tourism": "museum",
    "website": "http://www.lohgerbermuseum.de/web/osterzgebirgsgalerie.php"
  }
},
{
  "type": "node",
  "id": 2001875583,
  "lat": 51.2938931,
  "lon": 14.8127496,
  "tags": {
    "addr:housenumber": "2",
    "addr:postcode": "02906",
    "addr:street": "Goethestraße",
    "designation": "museum",
    "name": "Konrad-Wachsmann-Haus",
    "tourism": "museum",
    "website": "http://www.wachsmannhaus.niesky.de/"
  }
},
{
  "type": "node",
  "id": 2015578497,
  "lat": 51.0527541,
  "lon": 13.7438047,
  "tags": {
    "name": "Museum Festung Dresden",
    "opening_hours": "Mo-Su 10:00-17:00",
    "tourism": "museum",
    "wheelchair": "no"
  }
},
{
  "type": "node",
  "id": 2019809342,
  "lat": 51.0266821,
  "lon": 13.9035097,
  "tags": {
    "addr:city": "Dresden",
    "addr:country": "DE",
    "addr:housenumber": "3",
    "addr:postcode": "01328",
    "addr:street": "Schullwitzer Straße",
    "email": "mail@kleinbauernmuseum.de",
    "fax": "+49 351 2641784",
    "name": "Kleinbauernmuseum Reitzendorf",
    "opening_hours": "Mo-Fr 09:00-16:00; Sa,Su,PH 13:00-17:00",
    "phone": "+49 351 2641783",
    "tourism": "museum",
    "website": "www.kleinbauernmuseum.de",
    "wheelchair": "limited"
  }
},
{
  "type": "node",
  "id": 2051066657,
  "lat": 51.2150116,
  "lon": 13.7254863,
  "tags": {
    "name": "Heimatmuseum",
    "tourism": "museum"
  }
},
{
  "type": "node",
  "id": 2056871882,
  "lat": 51.0295277,
  "lon": 13.7376419,
  "tags": {
    "name": "Kustodie",
    "operator": "TU Dresden",
    "source": "estimation",
    "tourism": "museum"
  }
},
{
  "type": "node",
  "id": 2079594129,
  "lat": 50.7065226,
  "lon": 12.5338238,
  "tags": {
    "name": "Bergbaumuseum Reinsdorf",
    "tourism": "museum"
  }
},
{
  "type": "node",
  "id": 2085182296,
  "lat": 50.9181908,
  "lon": 14.0571390,
  "tags": {
    "name": "Ausstellung des Militärhistorischen Museums der Bundeswehr",
    "opening_hours": "Apr-Oct 10:00-18:00; Nov-Mar 09:00-17:00",
    "tourism": "museum",
    "wheelchair": "limited"
  }
},
{
  "type": "node",
  "id": 2085937710,
  "lat": 50.6601832,
  "lon": 13.3669819,
  "tags": {
    "addr:city": "Olbernhau",
    "addr:housenumber": "1b",
    "addr:postcode": "09526",
    "addr:street": "Forstgartenweg",
    "disused": "yes",
    "email": "verein@bergbau-live.de",
    "end_date": "2000",
    "fax": "+49 3736035270",
    "historic": "yes",
    "length": "180 m + 1500 m",
    "man_made": "adit",
    "name": "Schaubergwerk Gnade Gottes Erbstollen",
    "operator": "IG Bergbau & Mineralien Olbernhau e.V.",
    "phone": "+49 37360 35036",
    "resource": "Buntmetall",
    "start_date": "1515 + 1714",
    "tourism": "museum",
    "website": "http://www.bergbau-live.de"
  }
},
{
  "type": "node",
  "id": 2090890718,
  "lat": 50.7105409,
  "lon": 12.8692078,
  "tags": {
    "man_made": "watermill",
    "name": "Wiesenmühle Thalheim",
    "tourism": "museum",
    "website": "http://www.pension-wiesenmuehle.de/?page_id=46"
  }
},
{
  "type": "node",
  "id": 2108637658,
  "lat": 50.6754220,
  "lon": 12.4012877,
  "tags": {
    "addr:city": "Lichtentanne",
    "addr:housenumber": "34",
    "addr:postcode": "08115",
    "addr:street": "Burgstraße",
    "addr:suburb": "Schönfels",
    "name": "Museum Burg Schönfels",
    "opening_hours": "Tu-Th 10:00-17:00; Sa,Su 10:00-17:00",
    "source": "www.burg-schoenfels.de",
    "tourism": "museum",
    "website": "http://www.burg-schoenfels.de",
    "wheelchair": "no"
  }
},
{
  "type": "node",
  "id": 2138732981,
  "lat": 51.3899893,
  "lon": 12.2208497,
  "tags": {
    "name": "Stadtmuseum",
    "tourism": "museum"
  }
},
{
  "type": "node",
  "id": 2156635668,
  "lat": 50.5783694,
  "lon": 13.0045904,
  "tags": {
    "name": "Erzgebirgsmuseum",
    "tourism": "museum",
    "website": "http://www.annaberg-buchholz.de/de/kultur/erzgebirgsmuseum.php",
    "wheelchair": "limited"
  }
},
{
  "type": "node",
  "id": 2264237847,
  "lat": 51.1802211,
  "lon": 14.4270436,
  "tags": {
    "addr:city": "Bautzen",
    "addr:country": "DE",
    "addr:housenumber": "1",
    "addr:postcode": "02625",
    "addr:street": "Kornmarkt",
    "name": "Museum Bautzen",
    "name:hsb": "Muzej Budyšin",
    "phone": "+49 3591 498533",
    "toilets:wheelchair": "yes",
    "tourism": "museum",
    "website": "http://www.bautzen.de/museum-bautzen",
    "wheelchair": "yes",
    "wheelchair:description": "kein Barrieren"
  }
},
{
  "type": "node",
  "id": 2272733433,
  "lat": 50.6909680,
  "lon": 13.0886652,
  "tags": {
    "designation": "Exhibition",
    "name": "Nummernschildmuseum",
    "source": "http://www.nummernschildmuseum.de/",
    "tourism": "museum"
  }
},
{
  "type": "node",
  "id": 2286849170,
  "lat": 51.1308722,
  "lon": 12.8069950,
  "tags": {
    "name": "Oflag IV-C",
    "tourism": "museum",
    "website": "http://www.schloss-colditz.com/",
    "wikidata": "Q443620",
    "wikipedia": "de:Oflag IV-C"
  }
},
{
  "type": "node",
  "id": 2302217498,
  "lat": 51.1660455,
  "lon": 13.6745252,
  "tags": {
    "addr:city": "Moritzburg",
    "addr:housenumber": "7",
    "addr:postcode": "01468",
    "addr:street": "Meißner Straße",
    "name": "Käthe-Kollwitz-Haus",
    "tourism": "museum",
    "website": "http://www.kollwitzhaus.de/willkommen.htm"
  }
},
{
  "type": "node",
  "id": 2309814777,
  "lat": 51.5270332,
  "lon": 14.5098545,
  "tags": {
    "name": "Njepila-Hof u. Sorbische Heimatstube Rohne",
    "name:hsb": "Njepilic dwór a Serbska domizniska stwa",
    "tourism": "museum"
  }
},
{
  "type": "node",
  "id": 2311717395,
  "lat": 51.3044148,
  "lon": 13.5528725,
  "tags": {
    "name": "Mi24",
    "tourism": "museum"
  }
},
{
  "type": "node",
  "id": 2311717403,
  "lat": 51.3036910,
  "lon": 13.5539928,
  "tags": {
    "name": "Mil Mi-24 D (Ex CzAF, stationiert in Prerov, Tschechische Republik)",
    "tourism": "museum"
  }
},
{
  "type": "node",
  "id": 2311717410,
  "lat": 51.3038211,
  "lon": 13.5538246,
  "tags": {
    "name": "MiG 21 PFM Nr. 780 (ehemals LSK/LV der NVA)",
    "tourism": "museum"
  }
},
{
  "type": "node",
  "id": 2312641175,
  "lat": 51.0544014,
  "lon": 13.8200493,
  "tags": {
    "fee": "no",
    "layer": "-1",
    "level": "4",
    "name": "Schwebebahn-Ausstellung",
    "operator": "Dresdner Verkehrbetriebe",
    "tourism": "museum",
    "wheelchair": "no",
    "wheelchair:description:de": "Liegt im Treppenhaus der Station"
  }
},
{
  "type": "node",
  "id": 2337190763,
  "lat": 51.1636621,
  "lon": 12.5503917,
  "tags": {
    "fee": "no",
    "name": "Heimatmuseum Kitzscher",
    "opening_hours": "We,Fr 08:30-12:00,12:30-17:00; Sa,Su 12:30-18:00",
    "tourism": "museum"
  }
},
{
  "type": "node",
  "id": 2360138298,
  "lat": 51.1833772,
  "lon": 14.4193135,
  "tags": {
    "addr:city": "Bautzen",
    "addr:housenumber": "3",
    "addr:postcode": "02625",
    "addr:street": "Ortenburg",
    "name": "Sorbisches Museum",
    "name:hsb": "Serbski muzej",
    "phone": "+49 3591 2708700",
    "tourism": "museum",
    "wheelchair": "yes",
    "wheelchair:description": "volle Barrierefreiheit"
  }
},
{
  "type": "node",
  "id": 2377004232,
  "lat": 51.3417521,
  "lon": 12.3699982,
  "tags": {
    "addr:city": "Leipzig",
    "addr:country": "DE",
    "addr:housenumber": "24",
    "addr:postcode": "04109",
    "addr:street": "Dittrichring",
    "contact:phone": "+49341-9612443",
    "fee": "no",
    "name": "Museum in der \"Runden Ecke\"",
    "opening_hours": "Mo-Su 10:00-18:00",
    "operator": "Bürgerkomitee Leipzig e.V.",
    "toilets:wheelchair": "no",
    "tourism": "museum",
    "website": "http://www.runde-ecke-leipzig.de",
    "wheelchair": "no",
    "wikidata": "Q1497540",
    "wikipedia": "de:Gedenkstätte Museum in der „Runden Ecke“"
  }
},
{
  "type": "node",
  "id": 2383424013,
  "lat": 50.3214990,
  "lon": 12.2533246,
  "tags": {
    "name": "Perlmutter- Museum",
    "tourism": "museum",
    "website": "http://www.museum-adorf.de/wir.htm",
    "wheelchair": "no"
  }
},
{
  "type": "node",
  "id": 2384814846,
  "lat": 50.8948576,
  "lon": 14.6721423,
  "tags": {
    "name": "Technikmuseum",
    "tourism": "museum"
  }
},
{
  "type": "node",
  "id": 2387258210,
  "lat": 51.1544430,
  "lon": 14.1341835,
  "tags": {
    "entrance": "main",
    "image": "http://commons.wikimedia.org/wiki/File:2017_Rammenau_Altes_Gef%C3%A4ngnis.jpg",
    "name": "Altes Gefängnis",
    "operator": "Gemeinde Rammenau",
    "tourism": "museum"
  }
},
{
  "type": "node",
  "id": 2391428334,
  "lat": 50.5408135,
  "lon": 12.5683205,
  "tags": {
    "name": "Nadlerhaus",
    "tourism": "museum",
    "website": "http://www.stuetzengruen.de/index.php?bereich=nadlerhaus"
  }
},
{
  "type": "node",
  "id": 2396003150,
  "lat": 51.0496065,
  "lon": 14.0846165,
  "tags": {
    "description": "Very small museum about the gatekeepers",
    "description:de": "Sehr kleines Museum über die Torwächter",
    "name": "Torwächterstube",
    "operator": "Stadtwache Stolpen e.V.",
    "tourism": "museum"
  }
},
{
  "type": "node",
  "id": 2402383750,
  "lat": 50.7707719,
  "lon": 13.4305576,
  "tags": {
    "addr:city": "Dorfchemnitz",
    "addr:country": "DE",
    "addr:housenumber": "11",
    "addr:postcode": "09619",
    "addr:street": "Hauptstraße",
    "entrance": "main",
    "historic": "yes",
    "image": "http://commons.wikimedia.org/wiki/File:Eisenhammer_Dorfchemnitz_Hammerger%C3%BCst.jpg",
    "man_made": "watermill",
    "name": "Eisenhammer Dorfchemnitz",
    "opening_hours": "Tu-Sa 09:00-11:00,13:00-16:00; May - Oct: Su 13:00-16:00",
    "operator": "Gemeinde Dorfchemnitz",
    "phone": "+49 37320 1237",
    "tourism": "museum",
    "wikidata": "Q980880",
    "wikipedia": "de:Eisenhammer Dorfchemnitz"
  }
},
{
  "type": "node",
  "id": 2412530855,
  "lat": 50.6095041,
  "lon": 12.1701259,
  "tags": {
    "tourism": "museum",
    "wheelchair": "yes"
  }
},
{
  "type": "node",
  "id": 2441185823,
  "lat": 51.0660065,
  "lon": 13.2192634,
  "tags": {
    "name": "Adamstollen",
    "operator": "Segen Gottes Erbstolln  e.V.",
    "tourism": "museum"
  }
},
{
  "type": "node",
  "id": 2448371660,
  "lat": 50.4738047,
  "lon": 12.8044694,
  "tags": {
    "name": "Eisenbahnmuseum Rittersgrün",
    "tourism": "museum"
  }
},
{
  "type": "node",
  "id": 2458246640,
  "lat": 51.0293127,
  "lon": 13.7226230,
  "tags": {
    "name": "Gedenkstätte Münchner Platz Dresden",
    "opening_hours": "Mo-Fr 10:00-16:00;Sa-Su 10:00-18:00",
    "tourism": "museum",
    "website": "http://www.stsg.de/cms/dresden/startseite",
    "wheelchair": "yes"
  }
},
{
  "type": "node",
  "id": 2512299343,
  "lat": 51.0524839,
  "lon": 13.7430230,
  "tags": {
    "name": "Kunstforum Oktogon",
    "operator": "Hochschule für Bildende Künste Dresden",
    "tourism": "museum",
    "website": "http://www.hfbk-dresden.de/hochschule/profil/ausstellungen/ausstellungsprofil/"
  }
},
{
  "type": "node",
  "id": 2530795297,
  "lat": 51.0501587,
  "lon": 13.7431723,
  "tags": {
    "name": "Städtische Galerie Dresden",
    "opening_hours": "Tu-Su 10:00-18:00; Fr 10:00-19:00",
    "operator": "Landeshauptstadt Dresden",
    "phone": "+49 351 4887372",
    "tourism": "museum",
    "website": "http://www.galerie-dresden.de/",
    "wheelchair": "yes"
  }
},
{
  "type": "node",
  "id": 2624881323,
  "lat": 50.7628917,
  "lon": 13.7689675,
  "tags": {
    "addr:city": "Altenberg",
    "addr:country": "DE",
    "addr:housenumber": "2",
    "addr:postcode": "01773",
    "addr:street": "Mühlenstraße",
    "entrance": "main",
    "image": "http://wiki.openstreetmap.org/wiki/File:2014_Collage_Bergbaumuseum_Altenberg.jpg",
    "name": "Bergbaumuseum",
    "opening_hours": "Mo-Su,PH 10:00-16:00; Fr off",
    "phone": "+49 35056 31703",
    "tourism": "museum",
    "wheelchair": "no"
  }
},
{
  "type": "node",
  "id": 2626569714,
  "lat": 50.8255993,
  "lon": 13.1297281,
  "tags": {
    "addr:city": "Leubsdorf",
    "addr:country": "DE",
    "addr:housenumber": "1",
    "addr:postcode": "09573",
    "addr:street": "Fabrikweg",
    "addr:suburb": "Hohenfichte",
    "description": "Ausgestellt werden: Modelleisenbahn, Motorräder, Autos und Spielzeug",
    "name": "Zeitreise Hohenfichte",
    "tourism": "museum",
    "website": "http://www.zeitreise-hohenfichte.de"
  }
},
{
  "type": "node",
  "id": 2633473394,
  "lat": 51.1626926,
  "lon": 12.9253571,
  "tags": {
    "name": "Stiefelmuseum",
    "tourism": "museum"
  }
},
{
  "type": "node",
  "id": 2655686265,
  "lat": 51.1611518,
  "lon": 12.9257567,
  "tags": {
    "information": "history",
    "name": "Lutherstube",
    "tourism": "museum"
  }
},
{
  "type": "node",
  "id": 2655748722,
  "lat": 51.1617710,
  "lon": 12.9258266,
  "tags": {
    "name": "KFZ-Museum Andrä",
    "operator": "Andrä",
    "tourism": "museum"
  }
},
{
  "type": "node",
  "id": 2684781612,
  "lat": 51.1496336,
  "lon": 12.8921192,
  "tags": {
    "name": "Schanzenmühle",
    "tourism": "museum"
  }
},
{
  "type": "node",
  "id": 2695341730,
  "lat": 50.4945563,
  "lon": 12.1390306,
  "tags": {
    "addr:city": "Plauen",
    "addr:country": "DE",
    "addr:postcode": "08523",
    "addr:street": "Syrastraße",
    "name": "Luftschutzmuseum Meyerhof",
    "operator": "Vogtländischer Bergknappenverein zu Plauen e.V.",
    "phone": "+493741529426",
    "tourism": "museum",
    "website": "http://www.alaunbergwerk-plauen.de",
    "wheelchair": "no"
  }
},
{
  "type": "node",
  "id": 2716961617,
  "lat": 51.0404566,
  "lon": 13.7487209,
  "tags": {
    "name": "Dresdner Fußballmuseum",
    "opening_hours": "We 15:00+; Mo 10:00+; Fr 17:00+",
    "tourism": "museum"
  }
},
{
  "type": "node",
  "id": 2717081902,
  "lat": 51.0502875,
  "lon": 13.7296873,
  "tags": {
    "addr:city": "Dresden",
    "addr:housenumber": "5",
    "addr:postcode": "01067",
    "addr:street": "Annenstraße",
    "name": "Fernmeldemuseum Dresden",
    "opening_hours": "Sa[1] 10:00-15:00",
    "operator": "Interessengemeinschaft Historische Fernmeldetechnik e.V.",
    "phone": "+49 351 4820680",
    "tourism": "museum",
    "website": "http://www.fernmeldemuseum-dresden.de",
    "wikidata": "Q15809559",
    "wikipedia": "de:Fernmeldemuseum Dresden"
  }
},
{
  "type": "node",
  "id": 2764105058,
  "lat": 51.3434529,
  "lon": 12.3785792,
  "tags": {
    "addr:city": "Leipzig",
    "addr:housenumber": "59",
    "addr:postcode": "04109",
    "addr:street": "Nikolaistraße",
    "name": "Kriminalmuseum des Mittelalters",
    "phone": "+49 341 22286380",
    "tourism": "museum",
    "website": "http://www.kriminalmuseum-leipzig.de/",
    "wheelchair": "no",
    "wheelchair:description": "Im Hausinneren führt eine große Streintreppe mit mehr als 35 Stufen zum Museumseingang."
  }
},
{
  "type": "node",
  "id": 2778337003,
  "lat": 51.2472160,
  "lon": 13.9336957,
  "tags": {
    "name": "Kofferradiomuseum Gräfenhain",
    "tourism": "museum"
  }
},
{
  "type": "node",
  "id": 2800780153,
  "lat": 50.9166641,
  "lon": 13.3461956,
  "tags": {
    "addr:city": "Freiberg",
    "addr:country": "DE",
    "addr:housenumber": "1",
    "addr:postcode": "09599",
    "addr:street": "Helmertplatz",
    "description": "Ausstellung u.a. des originalen Schmelzkessels.",
    "name": "Ehemalige Königliche Schrotfabrik",
    "tourism": "museum"
  }
},
{
  "type": "node",
  "id": 2826573024,
  "lat": 50.9209000,
  "lon": 13.3434281,
  "tags": {
    "addr:city": "Freiberg",
    "addr:country": "DE",
    "addr:housenumber": "14",
    "addr:postcode": "09599",
    "addr:street": "Brennhausgasse",
    "amenity": "university",
    "name": "Mineralogische Sammlung, Lagerstättensammlung, Petrologische Sammlung",
    "opening_hours": "Mo-Th 09:00-12:00,13:00-16:00",
    "phone": "+49 3731 392264",
    "tourism": "museum"
  }
},
{
  "type": "node",
  "id": 2839972782,
  "lat": 51.0650806,
  "lon": 13.7593901,
  "tags": {
    "name": "BRN-Museum",
    "opening_hours": "Su[1] 11:00-17:00",
    "tourism": "museum"
  }
},
{
  "type": "node",
  "id": 2839994745,
  "lat": 51.0278553,
  "lon": 13.7254472,
  "tags": {
    "name": "Universitätssammlungen Kunst+Technik der TU Dresden",
    "tourism": "museum"
  }
},
{
  "type": "node",
  "id": 2843859497,
  "lat": 50.5153575,
  "lon": 12.0224439,
  "tags": {
    "name": "Schloß Leubnitz",
    "toilets:wheelchair": "yes",
    "tourism": "museum",
    "wheelchair": "yes"
  }
},
{
  "type": "node",
  "id": 2925815489,
  "lat": 51.0952509,
  "lon": 14.4342339,
  "tags": {
    "name": "Technikmuseum Kirschau",
    "name:hsb": "Techniski muzej Korzym",
    "tourism": "museum"
  }
},
{
  "type": "node",
  "id": 2969930124,
  "lat": 51.1185979,
  "lon": 13.6549126,
  "tags": {
    "addr:city": "Radebeul",
    "addr:country": "DE",
    "addr:housenumber": "62",
    "addr:postcode": "01445",
    "addr:street": "Lößnitzgrundstraße",
    "name": "Fort Henry",
    "tourism": "museum"
  }
},
{
  "type": "node",
  "id": 3012291844,
  "lat": 51.2768889,
  "lon": 12.9419441,
  "tags": {
    "addr:city": "Wermsdorf",
    "addr:housenumber": "21",
    "addr:postcode": "04779",
    "addr:street": "Hubertusburg",
    "name": "Ausstellung zu Bebel / Liebknecht in Hubertusburg",
    "tourism": "museum"
  }
},
{
  "type": "node",
  "id": 3014392746,
  "lat": 51.0423730,
  "lon": 13.0175517,
  "tags": {
    "addr:city": "Kriebstein",
    "addr:country": "DE",
    "addr:housenumber": "7",
    "addr:postcode": "09648",
    "addr:street": "Kriebsteiner Straße",
    "contact:website": "http://www.burg-kriebstein.de",
    "name": "Burg Kriebstein",
    "opening_hours": "Feb-Mar 10:00-16:00; Apr-Oct 10:00-17:30; Mo off",
    "tourism": "museum",
    "wheelchair": "no"
  }
},
{
  "type": "node",
  "id": 3014882642,
  "lat": 50.6284657,
  "lon": 12.8133901,
  "tags": {
    "name": "Stadtgeschichte Zwönitz",
    "tourism": "museum"
  }
},
{
  "type": "node",
  "id": 3029633846,
  "lat": 50.6320150,
  "lon": 12.8147951,
  "tags": {
    "man_made": "adit",
    "name": "Austelmühle",
    "resource": "iron_ore",
    "tourism": "museum"
  }
},
{
  "type": "node",
  "id": 3125795381,
  "lat": 50.4768081,
  "lon": 12.3693814,
  "tags": {
    "name": "Heimatmuseum",
    "tourism": "museum"
  }
},
{
  "type": "node",
  "id": 3125995594,
  "lat": 51.1133367,
  "lon": 13.5480091,
  "tags": {
    "addr:city": "Klipphausen",
    "addr:postcode": "01665",
    "addr:street": "Eichhörnchengrund",
    "inf": "Modelpark",
    "name": "Schulze-Mühle",
    "opening_hours": "Apr-Oct: Su 13:00-17:00",
    "phone": "+49 351 4538116",
    "tourism": "museum"
  }
},
{
  "type": "node",
  "id": 3136114841,
  "lat": 50.6865832,
  "lon": 12.3832833,
  "tags": {
    "description": "Wassermühle mit oberschlächtigem Rad von 1679 bis 1970 in Betrieb. (Schrotmühle) Heute Museum",
    "man_made": "watermill",
    "name": "Wassermühle Gospersgrün",
    "opening_hours": "Apr-Oct: Sa-Su 13:00-18:00",
    "start_date": "1679",
    "tourism": "museum",
    "watermill:disused": "yes",
    "website": "http://www.wassermuehle-gospersgruen.de/",
    "wikidata": "Q1538579",
    "wikipedia": "de:Gospersgrün"
  }
},
{
  "type": "node",
  "id": 3161218801,
  "lat": 51.0960743,
  "lon": 13.6593376,
  "tags": {
    "addr:city": "Radebeul",
    "addr:housenumber": "39",
    "addr:postcode": "01445",
    "addr:street": "Kötzschenbrodaer Straße",
    "name": "Lügenmuseum",
    "phone": "+49 351 33455848",
    "toilets:wheelchair": "no",
    "tourism": "museum",
    "website": "http://www.luegenmuseum.de",
    "wheelchair": "limited",
    "wheelchair:description": "Der Eingang des Lügenmuseums ist ebenerdig. Durch den Hintereingang können weitere Räume besichtigt werden. Kein Behinderten-WC."
  }
},
{
  "type": "node",
  "id": 3166409681,
  "lat": 51.0452095,
  "lon": 12.7917409,
  "tags": {
    "name": "Schloss Rochlitz",
    "opening_hours": "Mo-Fr 11:30-17:00; Sa-Su 10:00-17:00; Nov-Feb off",
    "ref:isil": "DE-MUS-861018",
    "tourism": "museum",
    "website": "http://www.schloss-rochlitz.de/",
    "wheelchair": "no"
  }
},
{
  "type": "node",
  "id": 3179336886,
  "lat": 50.9719747,
  "lon": 13.1243448,
  "tags": {
    "name": "Tuchmacherhaus",
    "opening_hours": "Mo-Th 09:00-14:00",
    "tourism": "museum"
  }
},
{
  "type": "node",
  "id": 3195579294,
  "lat": 50.7561546,
  "lon": 12.6352229,
  "tags": {
    "name": "Puppen- und Spielzeugmuseum",
    "tourism": "museum",
    "website": "http://www.spielzeugmuseum-lichtenstein.de"
  }
},
{
  "type": "node",
  "id": 3214259921,
  "lat": 50.7767162,
  "lon": 13.6890927,
  "tags": {
    "addr:city": "Altenberg",
    "addr:country": "DE",
    "addr:housenumber": "87",
    "addr:postcode": "01773",
    "addr:street": "Hauptstraße",
    "addr:suburb": "Schellerhau",
    "name": "Heimatstuben",
    "tourism": "museum"
  }
},
{
  "type": "node",
  "id": 3220055180,
  "lat": 50.9261079,
  "lon": 13.5894482,
  "tags": {
    "name": "Heimatmuseum",
    "tourism": "museum"
  }
},
{
  "type": "node",
  "id": 3244509771,
  "lat": 50.6608115,
  "lon": 13.3660767,
  "tags": {
    "disused": "yes",
    "email": "verein@bergbau-live.de",
    "end_date": "2000",
    "historic": "yes",
    "man_made": "adit",
    "name": "Hand Gottes Stollen",
    "operator": "IG Bergbau & Mineralien Olbernhau e.V.",
    "phone": "+49 37360 35036",
    "resource": "Buntmetall",
    "start_date": "1515",
    "tourism": "museum",
    "website": "http://www.bergbau-live.de"
  }
},
{
  "type": "node",
  "id": 3245716361,
  "lat": 50.7355641,
  "lon": 13.5570814,
  "tags": {
    "addr:city": "Rechenberg-Bienenmühle",
    "addr:housenumber": "30",
    "addr:postcode": "09623",
    "addr:street": "Muldentalstraße",
    "name": "Flößerhaus",
    "operator": "Heimatgeschichtsverein Rechenberg - Bienenmühle e.V.",
    "phone": "+49 37327 9958",
    "tourism": "museum"
  }
},
{
  "type": "node",
  "id": 3247296610,
  "lat": 51.3049858,
  "lon": 13.5492084,
  "tags": {
    "name": "Flugplatzausstellung Bunkeranlage GRANIT",
    "tourism": "museum"
  }
},
{
  "type": "node",
  "id": 3355425483,
  "lat": 51.3370587,
  "lon": 12.3765891,
  "tags": {
    "addr:city": "Leipzig",
    "addr:housenumber": "4",
    "addr:postcode": "04109",
    "addr:street": "Schillerstraße",
    "description:de": "Museum befindet sich in der Kunsthalle der Sparkasse",
    "name": "Sparkassenmuseum",
    "opening_hours": "Tu 15:00-17:00; We 10:00-13:00",
    "tourism": "museum",
    "website": "http://www.sparkassenmuseum-leipzig.de"
  }
},
{
  "type": "node",
  "id": 3368449997,
  "lat": 50.9438804,
  "lon": 12.7645314,
  "tags": {
    "tourism": "museum"
  }
},
{
  "type": "node",
  "id": 3394999323,
  "lat": 50.4222905,
  "lon": 12.1834498,
  "tags": {
    "addr:city": "Oelsnitz/Vogtl.",
    "addr:housenumber": "32",
    "addr:postcode": "08606",
    "addr:street": "Schloßstraße",
    "name": "Museen Schloß Voigtsberg",
    "name:en": "Museum Castel Voigtsberg",
    "opening_hours": "Tu-Su 11:00-17:00",
    "operator": "Oelsnitzer Kultur GmbH",
    "tourism": "museum",
    "website": "http://www.schloss-voigtsberg.de/",
    "wheelchair": "no"
  }
},
{
  "type": "node",
  "id": 3426502344,
  "lat": 50.7049875,
  "lon": 13.0555877,
  "tags": {
    "tourism": "museum"
  }
},
{
  "type": "node",
  "id": 3474121617,
  "lat": 50.3095775,
  "lon": 12.3279517,
  "tags": {
    "tourism": "museum",
    "wheelchair": "no"
  }
},
{
  "type": "node",
  "id": 3487260182,
  "lat": 50.5788339,
  "lon": 13.0015576,
  "tags": {
    "addr:city": "Annaberg-Buchholz",
    "addr:housenumber": "10",
    "addr:postcode": "09456",
    "addr:street": "Johannisgasse",
    "name": "Studienraum Carlfriedrich Claus",
    "opening_hours": "in der Regel von Mi–Sa, von 12–17 Uhr, bitte auf Webseite informieren",
    "operator": "Förderverein Carlfriedrich Claus – Lebens- und Arbeitsort in Annaberg-Buchholz e.V.",
    "tourism": "museum",
    "website": "http://www.carlfriedrich-claus.de"
  }
},
{
  "type": "node",
  "id": 3561592817,
  "lat": 51.0330305,
  "lon": 14.6708771,
  "tags": {
    "name": "Heimatstube",
    "tourism": "museum",
    "wheelchair": "no"
  }
},
{
  "type": "node",
  "id": 3573327313,
  "lat": 50.5161366,
  "lon": 12.9911357,
  "tags": {
    "addr:city": "Sehmatal",
    "addr:housenumber": "44",
    "addr:postcode": "09465",
    "addr:street": "Dorfstraße",
    "name": "1. Räuchermann Museum",
    "tourism": "museum",
    "website": "http://www.raachermannlmuseum.de/"
  }
},
{
  "type": "node",
  "id": 3615174803,
  "lat": 51.1409970,
  "lon": 14.2462045,
  "tags": {
    "addr:city": "Demitz-Thumitz",
    "addr:housenumber": "2",
    "addr:postcode": "01877",
    "addr:street": "Schulsteg",
    "name": "Erlebnismuseum \"Alte Steinsäge\"",
    "toilets:wheelchair": "yes",
    "tourism": "museum",
    "wheelchair": "yes"
  }
},
{
  "type": "node",
  "id": 3628456311,
  "lat": 50.9872623,
  "lon": 14.0538702,
  "tags": {
    "fee": "yes",
    "name": "SteinReich Museum",
    "opening_hours": "Apr-Oct: 08:00-20:00",
    "tourism": "museum",
    "website": "http://www.steinreich-sachsen.de/info.html#museum"
  }
},
{
  "type": "node",
  "id": 3631036544,
  "lat": 51.0501172,
  "lon": 13.5365884,
  "tags": {
    "addr:city": "Wilsdruff",
    "addr:housenumber": "12",
    "addr:postcode": "01723",
    "addr:street": "Gezinge",
    "email": "post@heimatmuseum.wilsdruff.net",
    "name": "Heimatmuseum Wilsdruff",
    "opening_hours": "Mo-Th 09:00-14:00; Fr 09:00-15:00; Sa off; Su,PH 14:00-18:00",
    "operator": "Angelika Marienfeldt",
    "phone": "+49 35204 46398",
    "tourism": "museum",
    "website": "http://www.wilsdruff.de/(S(a0o0agb1hpitr3vqtcjus2zw))/wilma.aspx?pgId=607&WilmaLogonActionBehavior=Default"
  }
},
{
  "type": "node",
  "id": 3641986471,
  "lat": 51.3404972,
  "lon": 12.3911054,
  "tags": {
    "name": "Schumann-Haus",
    "opening_hours": "Mo-Fr 14:00-18:00, Sa,Su 10:00-18:00",
    "tourism": "museum"
  }
},
{
  "type": "node",
  "id": 3677248354,
  "lat": 51.0493759,
  "lon": 14.2212052,
  "tags": {
    "tourism": "museum",
    "website": "http://www.goldmuseum-sachsen.de/"
  }
},
{
  "type": "node",
  "id": 3708853630,
  "lat": 51.0350449,
  "lon": 13.9419008,
  "tags": {
    "name": "Museum auf dem Dachboden",
    "tourism": "museum"
  }
},
{
  "type": "node",
  "id": 3724394484,
  "lat": 51.0956897,
  "lon": 14.6662839,
  "tags": {
    "name": "Stadtmuseum",
    "tourism": "museum"
  }
},
{
  "type": "node",
  "id": 3730317074,
  "lat": 51.3321671,
  "lon": 12.3084672,
  "tags": {
    "name": "Museum im Trafohaus",
    "tourism": "museum",
    "website": "http://www.historischer-elektromaschinenbau.de/"
  }
},
{
  "type": "node",
  "id": 3763522922,
  "lat": 51.2971801,
  "lon": 13.1057921,
  "tags": {
    "addr:city": "Oschatz",
    "addr:housenumber": "1",
    "addr:postcode": "04758",
    "addr:street": "Frongasse",
    "description": "Historisches Gebäude, Rats- und Amtsfronfeste, grenzen z. T. noch an die gut erhaltene Altstadtmauer an.",
    "name": "Stadt- und Waagenmuseum",
    "opening_hours": "Tu-Th 10:00-12:30,13:00-17:00; Fr-Su 13:30-17:00",
    "tourism": "museum"
  }
},
{
  "type": "node",
  "id": 3781826453,
  "lat": 51.2037344,
  "lon": 13.9409097,
  "tags": {
    "name": "Dorfmuseum - Ausstellung zur Ortsgeschichte",
    "tourism": "museum"
  }
},
{
  "type": "node",
  "id": 3792853141,
  "lat": 51.1269168,
  "lon": 13.5783580,
  "tags": {
    "addr:city": "Coswig",
    "addr:country": "DE",
    "addr:housenumber": "4",
    "addr:postcode": "01640",
    "addr:street": "Karrasstraße",
    "check_date": "2017-12-09",
    "image": "http://commons.wikimedia.org/wiki/File:2017_Coswig_Villa_Thienemann_auf_der_Karrasburg.jpg",
    "name": "Museum Coswig",
    "opening_hours": "Tu,Th 12:00-18:00; Sa,Su 14:00-18:00; Mo,We,Fr,PH off \"nach Vereinbarung\"",
    "start_date": "1996",
    "tourism": "museum",
    "wheelchair": "limited"
  }
},
{
  "type": "node",
  "id": 3801755159,
  "lat": 51.1359673,
  "lon": 13.4597403,
  "tags": {
    "addr:city": "Meißen",
    "addr:housename": "ICM Meißen",
    "addr:housenumber": "37a",
    "addr:postcode": "01662",
    "addr:street": "Ossietzkystraße",
    "name": "IG Modelleisenbahn Meißen -1999- e.V.",
    "tourism": "museum",
    "website": "www.ig-modellbahn-meissen-digital-de"
  }
},
{
  "type": "node",
  "id": 3833986669,
  "lat": 51.3445738,
  "lon": 12.3831325,
  "tags": {
    "name": "DB Baustelle Knoten Leipzig Infopunkt",
    "note": "Steht teilweise auf dem stillgelegten Gleis",
    "opening_hours": "We-Su 12:00-19:00",
    "operator": "Deutsche Bahn",
    "source": "survey",
    "start_date": "2013",
    "tourism": "museum"
  }
},
{
  "type": "node",
  "id": 3840020506,
  "lat": 51.3373749,
  "lon": 12.2965707,
  "tags": {
    "name": "Museumsfeldbahn Leipzig-Lindenau",
    "operator": "Museumsfeldbahn Leipzig-Lindenau e.V.",
    "tourism": "museum",
    "website": "http://www.museumsfeldbahn.de"
  }
},
{
  "type": "node",
  "id": 3840467380,
  "lat": 50.7661658,
  "lon": 13.7526667,
  "tags": {
    "addr:city": "Altenberg",
    "addr:housenumber": "2",
    "addr:postcode": "01773",
    "addr:street": "Bahnhof",
    "email": "historische-sammlung.altenberg@freenet.de",
    "entrance": "main",
    "historic": "yes",
    "name": "Historische Sammlung",
    "opening_hours": "Su 15:00-18:00",
    "tourism": "museum",
    "website": "https://www.facebook.com/Historische-Sammlung-Altenberg-868226359907826",
    "wheelchair": "limited"
  }
},
{
  "type": "node",
  "id": 3874280504,
  "lat": 51.1426731,
  "lon": 14.8038621,
  "tags": {
    "addr:city": "Reichenbach/O.L.",
    "addr:housenumber": "25",
    "addr:postcode": "02894",
    "addr:street": "Görlitzer Straße",
    "name": "Ackerbürgermuseum Reichenbach",
    "opening_hours": "Tu-Su 13:00-17:00",
    "phone": "+49 35828 72093",
    "tourism": "museum",
    "website": "http://oberlausitz-museum.de/ackerbuergermuseum-reichenbach-ol/"
  }
},
{
  "type": "node",
  "id": 3891067354,
  "lat": 50.5791069,
  "lon": 13.0014304,
  "tags": {
    "addr:city": "Annaberg-Buchholz",
    "addr:housenumber": "23",
    "addr:postcode": "09456",
    "addr:street": "Johannisgasse",
    "name": "Adam-Ries-Museum",
    "opening_hours": "Tue - Fri: 10:00 - 16:00, Sat, Sun: 12:00 - 16:00",
    "operator": "Adam-Ries-Bund e.V.",
    "tourism": "museum",
    "website": "http://www.adam-ries-museum.de"
  }
},
{
  "type": "node",
  "id": 3891089082,
  "lat": 50.5882327,
  "lon": 12.6374675,
  "tags": {
    "name": "Fundgrube Weißer Hirsch",
    "tourism": "museum",
    "website": "http://www.bergbauverein-weisser-hirsch.de"
  }
},
{
  "type": "node",
  "id": 3907277232,
  "lat": 51.0293487,
  "lon": 14.6722498,
  "tags": {
    "name": "Feuerwehrmuseum",
    "tourism": "museum"
  }
},
{
  "type": "node",
  "id": 3924932449,
  "lat": 51.4003726,
  "lon": 12.2203577,
  "tags": {
    "addr:city": "Schkeuditz",
    "addr:housenumber": "44",
    "addr:postcode": "04435",
    "addr:street": "Schillerstraße",
    "name": "Spielzeugmuseum",
    "tourism": "museum"
  }
},
{
  "type": "node",
  "id": 3928427243,
  "lat": 50.9181402,
  "lon": 13.3408616,
  "tags": {
    "addr:city": "Freiberg",
    "addr:housenumber": "22",
    "addr:postcode": "09599",
    "addr:street": "Nonnengasse",
    "email": "Norman.Pohl@iwtg.tu-freiberg.de",
    "fax": "+49 3731 392832",
    "fixme": "Lage bitte noch anpassen.",
    "name": "Historicum",
    "opening_hours": "Fr[1] 14:00-17:00",
    "operator": "TU Bergakademie Freiberg",
    "phone": "+49 3731 393491",
    "tourism": "museum",
    "website": "http://tu-freiberg.de/fakult6/technikgeschichte-und-industriearchaeologie/zentrale-einrichtungen/historicum"
  }
},